{
"type": "FeatureCollection",
"name": "marches",
"crs": { "type": "name", "properties": { "name": "urn:ogc:def:crs:OGC:1.3:CRS84" } },
"features": [
{ "type": "Feature", "properties": { "id": "osm_node_1292969599", "nom": "Marché Tchintchinda", "type": "Rural", "source": "OSM", "lon": 1.2111966, "lat": 9.5473539, "prefecture": "Kozah", "region": "Kara" }, "geometry": { "type": "Point", "coordinates": [ 1.2111966, 9.5473539 ] } },
{ "type": "Feature", "properties": { "id": "osm_node_1292970741", "nom": "Place de l'ancien marché de Sarakawa", "type": "Rural", "source": "OSM", "lon": 1.2116668, "lat": 9.5580402, "prefecture": "Kozah", "region": "Kara" }, "geometry": { "type": "Point", "coordinates": [ 1.2116668, 9.5580402 ] } },
{ "type": "Feature", "properties": { "id": "osm_node_1292980431", "nom": "marche de wakada", "type": "Rural", "source": "OSM", "lon": 1.1729941, "lat": 9.5441983, "prefecture": "Kozah", "region": "Kara" }, "geometry": { "type": "Point", "coordinates": [ 1.1729941, 9.5441983 ] } },
{ "type": "Feature", "properties": { "id": "osm_node_1879842665", "nom": "Grand Marché", "type": "Urbain", "source": "OSM", "lon": 1.2334876, "lat": 6.1273769, "prefecture": "Lome Commune", "region": "Maritime" }, "geometry": { "type": "Point", "coordinates": [ 1.2334876, 6.1273769 ] } },
{ "type": "Feature", "properties": { "id": "osm_node_2203980181", "nom": "Marché de Nadoba", "type": "Rural", "source": "OSM", "lon": 1.0796517, "lat": 10.1370234, "prefecture": "Keran", "region": "Kara" }, "geometry": { "type": "Point", "coordinates": [ 1.0796517, 10.1370234 ] } },
{ "type": "Feature", "properties": { "id": "osm_node_2460698293", "nom": "Marché", "type": "Rural", "source": "OSM", "lon": 1.5934946, "lat": 6.2282176, "prefecture": "Lacs", "region": "Maritime" }, "geometry": { "type": "Point", "coordinates": [ 1.5934946, 6.2282176 ] } },
{ "type": "Feature", "properties": { "id": "osm_node_2494771839", "nom": "Carrefour", "type": "Rural", "source": "OSM", "lon": 0.2247876, "lat": 10.9772833, "prefecture": "Cinkassé", "region": "Savanes" }, "geometry": { "type": "Point", "coordinates": [ 0.2247876, 10.9772833 ] } },
{ "type": "Feature", "properties": { "id": "osm_node_2730903125", "nom": "Marché de Noukafu", "type": "Rural", "source": "OSM", "lon": 1.2362292, "lat": 6.1596337, "prefecture": "Lome Commune", "region": "Maritime" }, "geometry": { "type": "Point", "coordinates": [ 1.2362292, 6.1596337 ] } },
{ "type": "Feature", "properties": { "id": "osm_node_2999860539", "nom": "Marche Municipale Ablodessime", "type": "Rural", "source": "OSM", "lon": 1.6078959, "lat": 6.2361618, "prefecture": "Lacs", "region": "Maritime" }, "geometry": { "type": "Point", "coordinates": [ 1.6078959, 6.2361618 ] } },
{ "type": "Feature", "properties": { "id": "osm_node_3101142730", "nom": "Marché de Tomates", "type": "Rural", "source": "OSM", "lon": 1.2039083, "lat": 6.1161997, "prefecture": "Lome Commune", "region": "Maritime" }, "geometry": { "type": "Point", "coordinates": [ 1.2039083, 6.1161997 ] } },
{ "type": "Feature", "properties": { "id": "osm_node_3161426132", "nom": "Marché d'Akodésséwa", "type": "Rural", "source": "OSM", "lon": 1.2680023, "lat": 6.1534682, "prefecture": "Lome Commune", "region": "Maritime" }, "geometry": { "type": "Point", "coordinates": [ 1.2680023, 6.1534682 ] } },
{ "type": "Feature", "properties": { "id": "osm_node_3161471078", "nom": "Marché d'Agoè Zongo", "type": "Rural", "source": "OSM", "lon": 1.2079169, "lat": 6.2544491, "prefecture": "Golfe", "region": "Maritime" }, "geometry": { "type": "Point", "coordinates": [ 1.2079169, 6.2544491 ] } },
{ "type": "Feature", "properties": { "id": "osm_node_3161505910", "nom": "Amoutivé", "type": "Rural", "source": "OSM", "lon": 1.229964, "lat": 6.1412713, "prefecture": "Lome Commune", "region": "Maritime" }, "geometry": { "type": "Point", "coordinates": [ 1.229964, 6.1412713 ] } },
{ "type": "Feature", "properties": { "id": "osm_node_3174714660", "nom": "Gbossimé", "type": "Rural", "source": "OSM", "lon": 1.2072448, "lat": 6.1590973, "prefecture": "Lome Commune", "region": "Maritime" }, "geometry": { "type": "Point", "coordinates": [ 1.2072448, 6.1590973 ] } },
{ "type": "Feature", "properties": { "id": "osm_node_3435848334", "nom": "Marché Avéta", "type": "Rural", "source": "OSM", "lon": 1.2847115, "lat": 6.2625893, "prefecture": "Zio", "region": "Maritime" }, "geometry": { "type": "Point", "coordinates": [ 1.2847115, 6.2625893 ] } },
{ "type": "Feature", "properties": { "id": "osm_node_3458599490", "nom": "Marché des fruits", "type": "Rural", "source": "OSM", "lon": 1.235192, "lat": 6.1283172, "prefecture": "Lome Commune", "region": "Maritime" }, "geometry": { "type": "Point", "coordinates": [ 1.235192, 6.1283172 ] } },
{ "type": "Feature", "properties": { "id": "osm_node_3486923922", "nom": "Marché", "type": "Rural", "source": "OSM", "lon": 1.2166008, "lat": 6.1632902, "prefecture": "Lome Commune", "region": "Maritime" }, "geometry": { "type": "Point", "coordinates": [ 1.2166008, 6.1632902 ] } },
{ "type": "Feature", "properties": { "id": "osm_node_3591026325", "nom": "Marché de SOTOUBOUA", "type": "Rural", "source": "OSM", "lon": 0.9844517, "lat": 8.5591223, "prefecture": "Sotouboua", "region": "Centrale" }, "geometry": { "type": "Point", "coordinates": [ 0.9844517, 8.5591223 ] } },
{ "type": "Feature", "properties": { "id": "osm_node_3603142010", "nom": "Marché De Lundi", "type": "Rural", "source": "OSM", "lon": 0.9755457, "lat": 8.5616368, "prefecture": "Sotouboua", "region": "Centrale" }, "geometry": { "type": "Point", "coordinates": [ 0.9755457, 8.5616368 ] } },
{ "type": "Feature", "properties": { "id": "osm_node_3804724055", "nom": "Marché de Komah", "type": "Rural", "source": "OSM", "lon": 1.1425369, "lat": 8.9754196, "prefecture": "Tchaoudjo", "region": "Centrale" }, "geometry": { "type": "Point", "coordinates": [ 1.1425369, 8.9754196 ] } },
{ "type": "Feature", "properties": { "id": "osm_node_3832310128", "nom": "Marché d'Adéwui", "type": "Rural", "source": "OSM", "lon": 1.2128802, "lat": 6.1600889, "prefecture": "Lome Commune", "region": "Maritime" }, "geometry": { "type": "Point", "coordinates": [ 1.2128802, 6.1600889 ] } },
{ "type": "Feature", "properties": { "id": "osm_node_3832434564", "nom": "MARCHE DE SOLLA VILLE", "type": "Urbain", "source": "OSM", "lon": 1.348485, "lat": 9.8893917, "prefecture": "Binah", "region": "Kara" }, "geometry": { "type": "Point", "coordinates": [ 1.348485, 9.8893917 ] } },
{ "type": "Feature", "properties": { "id": "osm_node_3835146333", "nom": "marché de Médévunui", "type": "Rural", "source": "OSM", "lon": 0.6979368, "lat": 7.1759423, "prefecture": "Danyi", "region": "Plateaux" }, "geometry": { "type": "Point", "coordinates": [ 0.6979368, 7.1759423 ] } },
{ "type": "Feature", "properties": { "id": "osm_node_3835177163", "nom": "marché de Médévunui", "type": "Rural", "source": "OSM", "lon": 0.6981202, "lat": 7.1755438, "prefecture": "Danyi", "region": "Plateaux" }, "geometry": { "type": "Point", "coordinates": [ 0.6981202, 7.1755438 ] } },
{ "type": "Feature", "properties": { "id": "osm_node_3890979926", "nom": "Sosouo", "type": "Rural", "source": "OSM", "lon": 0.207224, "lat": 10.9188312, "prefecture": "Tone", "region": "Savanes" }, "geometry": { "type": "Point", "coordinates": [ 0.207224, 10.9188312 ] } },
{ "type": "Feature", "properties": { "id": "osm_node_3915323781", "nom": "Ancien Marché", "type": "Rural", "source": "OSM", "lon": 0.91483, "lat": 6.4532035, "prefecture": "Ave", "region": "Maritime" }, "geometry": { "type": "Point", "coordinates": [ 0.91483, 6.4532035 ] } },
{ "type": "Feature", "properties": { "id": "osm_node_3915414026", "nom": "Nuwozamedoo", "type": "Rural", "source": "OSM", "lon": 0.9184635, "lat": 6.4584192, "prefecture": "Ave", "region": "Maritime" }, "geometry": { "type": "Point", "coordinates": [ 0.9184635, 6.4584192 ] } },
{ "type": "Feature", "properties": { "id": "osm_node_3915414027", "nom": "Marché", "type": "Rural", "source": "OSM", "lon": 0.9131523, "lat": 6.45427, "prefecture": "Ave", "region": "Maritime" }, "geometry": { "type": "Point", "coordinates": [ 0.9131523, 6.45427 ] } },
{ "type": "Feature", "properties": { "id": "osm_node_3915444135", "nom": "Marché", "type": "Rural", "source": "OSM", "lon": 0.9141996, "lat": 6.4552924, "prefecture": "Ave", "region": "Maritime" }, "geometry": { "type": "Point", "coordinates": [ 0.9141996, 6.4552924 ] } },
{ "type": "Feature", "properties": { "id": "osm_node_3915444145", "nom": "Marché", "type": "Rural", "source": "OSM", "lon": 0.9171291, "lat": 6.4591928, "prefecture": "Ave", "region": "Maritime" }, "geometry": { "type": "Point", "coordinates": [ 0.9171291, 6.4591928 ] } },
{ "type": "Feature", "properties": { "id": "osm_node_3915536339", "nom": "Marché", "type": "Rural", "source": "OSM", "lon": 0.9147267, "lat": 6.4492198, "prefecture": "Ave", "region": "Maritime" }, "geometry": { "type": "Point", "coordinates": [ 0.9147267, 6.4492198 ] } },
{ "type": "Feature", "properties": { "id": "osm_node_3915950398", "nom": "Marché", "type": "Rural", "source": "OSM", "lon": 0.9141149, "lat": 6.4615554, "prefecture": "Ave", "region": "Maritime" }, "geometry": { "type": "Point", "coordinates": [ 0.9141149, 6.4615554 ] } },
{ "type": "Feature", "properties": { "id": "osm_node_4007144984", "nom": "Marché de Légbassito", "type": "Rural", "source": "OSM", "lon": 1.150657, "lat": 6.2680613, "prefecture": "Golfe", "region": "Maritime" }, "geometry": { "type": "Point", "coordinates": [ 1.150657, 6.2680613 ] } },
{ "type": "Feature", "properties": { "id": "osm_node_4008404885", "nom": "Bokovi-simé", "type": "Rural", "source": "OSM", "lon": 1.1691348, "lat": 6.1837779, "prefecture": "Golfe", "region": "Maritime" }, "geometry": { "type": "Point", "coordinates": [ 1.1691348, 6.1837779 ] } },
{ "type": "Feature", "properties": { "id": "osm_node_4088778953", "nom": "Adrigogbonou", "type": "Rural", "source": "OSM", "lon": 1.5268267, "lat": 6.3326272, "prefecture": "Vo", "region": "Maritime" }, "geometry": { "type": "Point", "coordinates": [ 1.5268267, 6.3326272 ] } },
{ "type": "Feature", "properties": { "id": "osm_node_4088806697", "nom": "Grand Marché de Vogan (Gbeke)", "type": "Urbain", "source": "OSM", "lon": 1.5242286, "lat": 6.3384502, "prefecture": "Vo", "region": "Maritime" }, "geometry": { "type": "Point", "coordinates": [ 1.5242286, 6.3384502 ] } },
{ "type": "Feature", "properties": { "id": "osm_node_4088806725", "nom": "Marché", "type": "Rural", "source": "OSM", "lon": 1.5267654, "lat": 6.332591, "prefecture": "Vo", "region": "Maritime" }, "geometry": { "type": "Point", "coordinates": [ 1.5267654, 6.332591 ] } },
{ "type": "Feature", "properties": { "id": "osm_node_4130834099", "nom": "Marché d'Agbalépédogan", "type": "Rural", "source": "OSM", "lon": 1.2026297, "lat": 6.1941961, "prefecture": "Golfe", "region": "Maritime" }, "geometry": { "type": "Point", "coordinates": [ 1.2026297, 6.1941961 ] } },
{ "type": "Feature", "properties": { "id": "osm_node_4139079892", "nom": "Marché d'Ahligo", "type": "Rural", "source": "OSM", "lon": 1.2533592, "lat": 6.1410686, "prefecture": "Lome Commune", "region": "Maritime" }, "geometry": { "type": "Point", "coordinates": [ 1.2533592, 6.1410686 ] } },
{ "type": "Feature", "properties": { "id": "osm_node_4215522294", "nom": "Petit Marché", "type": "Rural", "source": "OSM", "lon": 1.1419697, "lat": 8.9873335, "prefecture": "Tchaoudjo", "region": "Centrale" }, "geometry": { "type": "Point", "coordinates": [ 1.1419697, 8.9873335 ] } },
{ "type": "Feature", "properties": { "id": "osm_node_4221442017", "nom": "MARCHE DE KADAMBARA", "type": "Rural", "source": "OSM", "lon": 1.1704178, "lat": 8.9543463, "prefecture": "Tchaoudjo", "region": "Centrale" }, "geometry": { "type": "Point", "coordinates": [ 1.1704178, 8.9543463 ] } },
{ "type": "Feature", "properties": { "id": "osm_node_4222327100", "nom": "Marché", "type": "Rural", "source": "OSM", "lon": 1.1035731, "lat": 9.0293878, "prefecture": "Tchaoudjo", "region": "Centrale" }, "geometry": { "type": "Point", "coordinates": [ 1.1035731, 9.0293878 ] } },
{ "type": "Feature", "properties": { "id": "osm_node_4336706217", "nom": "Marché de Kabou", "type": "Rural", "source": "OSM", "lon": 0.8132938, "lat": 9.4549161, "prefecture": "Bassar", "region": "Kara" }, "geometry": { "type": "Point", "coordinates": [ 0.8132938, 9.4549161 ] } },
{ "type": "Feature", "properties": { "id": "osm_node_4516053286", "nom": "Marché", "type": "Rural", "source": "OSM", "lon": 0.6942734, "lat": 7.2023254, "prefecture": "Danyi", "region": "Plateaux" }, "geometry": { "type": "Point", "coordinates": [ 0.6942734, 7.2023254 ] } },
{ "type": "Feature", "properties": { "id": "osm_node_4797954962", "nom": "Marché de Totsi", "type": "Rural", "source": "OSM", "lon": 1.1878529, "lat": 6.1944603, "prefecture": "Golfe", "region": "Maritime" }, "geometry": { "type": "Point", "coordinates": [ 1.1878529, 6.1944603 ] } },
{ "type": "Feature", "properties": { "id": "osm_node_4819836141", "nom": "Grand Marché De Tchamba", "type": "Urbain", "source": "OSM", "lon": 1.4102571, "lat": 9.01999, "prefecture": "Tchamba", "region": "Centrale" }, "geometry": { "type": "Point", "coordinates": [ 1.4102571, 9.01999 ] } },
{ "type": "Feature", "properties": { "id": "osm_node_4905011415", "nom": "Marché de Guérin-kouka", "type": "Rural", "source": "OSM", "lon": 0.6049937, "lat": 9.7014746, "prefecture": "Dankpen", "region": "Kara" }, "geometry": { "type": "Point", "coordinates": [ 0.6049937, 9.7014746 ] } },
{ "type": "Feature", "properties": { "id": "osm_node_4929129407", "nom": "Marché De Dimanche", "type": "Rural", "source": "OSM", "lon": 0.9847042, "lat": 8.5762775, "prefecture": "Sotouboua", "region": "Centrale" }, "geometry": { "type": "Point", "coordinates": [ 0.9847042, 8.5762775 ] } },
{ "type": "Feature", "properties": { "id": "osm_node_4929129408", "nom": "Marché De Mercredi", "type": "Rural", "source": "OSM", "lon": 0.9833136, "lat": 8.5635648, "prefecture": "Sotouboua", "region": "Centrale" }, "geometry": { "type": "Point", "coordinates": [ 0.9833136, 8.5635648 ] } },
{ "type": "Feature", "properties": { "id": "osm_node_4930532561", "nom": "Marché De Jeudi", "type": "Rural", "source": "OSM", "lon": 0.9953373, "lat": 8.5586513, "prefecture": "Sotouboua", "region": "Centrale" }, "geometry": { "type": "Point", "coordinates": [ 0.9953373, 8.5586513 ] } },
{ "type": "Feature", "properties": { "id": "osm_node_4930789832", "nom": "Marché De Mardi", "type": "Rural", "source": "OSM", "lon": 0.9844851, "lat": 8.553031, "prefecture": "Sotouboua", "region": "Centrale" }, "geometry": { "type": "Point", "coordinates": [ 0.9844851, 8.553031 ] } },
{ "type": "Feature", "properties": { "id": "osm_node_4936200129", "nom": "Marché de Kétao", "type": "Rural", "source": "OSM", "lon": 1.3077137, "lat": 9.6571739, "prefecture": "Binah", "region": "Kara" }, "geometry": { "type": "Point", "coordinates": [ 1.3077137, 9.6571739 ] } },
{ "type": "Feature", "properties": { "id": "osm_node_5304186121", "nom": "Marché de Gakpoto", "type": "Rural", "source": "OSM", "lon": 1.2693286, "lat": 6.1540541, "prefecture": "Lome Commune", "region": "Maritime" }, "geometry": { "type": "Point", "coordinates": [ 1.2693286, 6.1540541 ] } },
{ "type": "Feature", "properties": { "id": "osm_node_5343245164", "nom": "Akoélévissimé", "type": "Rural", "source": "OSM", "lon": 1.2587446, "lat": 6.1460191, "prefecture": "Lome Commune", "region": "Maritime" }, "geometry": { "type": "Point", "coordinates": [ 1.2587446, 6.1460191 ] } },
{ "type": "Feature", "properties": { "id": "osm_node_5456886514", "nom": "Petit marché de boissons locales", "type": "Rural", "source": "OSM", "lon": 1.20772, "lat": 6.1691399, "prefecture": "Lome Commune", "region": "Maritime" }, "geometry": { "type": "Point", "coordinates": [ 1.20772, 6.1691399 ] } },
{ "type": "Feature", "properties": { "id": "osm_node_5677926880", "nom": "Petit marché", "type": "Rural", "source": "OSM", "lon": 1.3261026, "lat": 6.1681095, "prefecture": "Lome Commune", "region": "Maritime" }, "geometry": { "type": "Point", "coordinates": [ 1.3261026, 6.1681095 ] } },
{ "type": "Feature", "properties": { "id": "osm_node_5758087835", "nom": "Marché Château", "type": "Rural", "source": "OSM", "lon": 0.6391122, "lat": 6.915902, "prefecture": "Kloto", "region": "Plateaux" }, "geometry": { "type": "Point", "coordinates": [ 0.6391122, 6.915902 ] } },
{ "type": "Feature", "properties": { "id": "osm_node_5817323182", "nom": "Marché", "type": "Rural", "source": "OSM", "lon": 1.211535, "lat": 6.4363192, "prefecture": "Zio", "region": "Maritime" }, "geometry": { "type": "Point", "coordinates": [ 1.211535, 6.4363192 ] } },
{ "type": "Feature", "properties": { "id": "osm_node_5817716197", "nom": "Marché", "type": "Rural", "source": "OSM", "lon": 1.2147268, "lat": 6.4296192, "prefecture": "Zio", "region": "Maritime" }, "geometry": { "type": "Point", "coordinates": [ 1.2147268, 6.4296192 ] } },
{ "type": "Feature", "properties": { "id": "osm_node_5981242850", "nom": "Marché de Timbou", "type": "Rural", "source": "OSM", "lon": 0.1100574, "lat": 11.0359449, "prefecture": "Cinkassé", "region": "Savanes" }, "geometry": { "type": "Point", "coordinates": [ 0.1100574, 11.0359449 ] } },
{ "type": "Feature", "properties": { "id": "osm_node_5993882558", "nom": "Marché danpiomg", "type": "Rural", "source": "OSM", "lon": 0.2251583, "lat": 10.936985, "prefecture": "Tone", "region": "Savanes" }, "geometry": { "type": "Point", "coordinates": [ 0.2251583, 10.936985 ] } },
{ "type": "Feature", "properties": { "id": "osm_node_5994325421", "nom": "marhce de apkadape", "type": "Rural", "source": "OSM", "lon": 0.5942849, "lat": 6.8442106, "prefecture": "Kloto", "region": "Plateaux" }, "geometry": { "type": "Point", "coordinates": [ 0.5942849, 6.8442106 ] } },
{ "type": "Feature", "properties": { "id": "osm_node_6166454362", "nom": "Petit marché de blitta", "type": "Rural", "source": "OSM", "lon": 0.97657, "lat": 8.32402, "prefecture": "Blitta", "region": "Centrale" }, "geometry": { "type": "Point", "coordinates": [ 0.97657, 8.32402 ] } },
{ "type": "Feature", "properties": { "id": "osm_node_6214463934", "nom": "Avétassimé", "type": "Rural", "source": "OSM", "lon": 1.2893884, "lat": 6.2716728, "prefecture": "Zio", "region": "Maritime" }, "geometry": { "type": "Point", "coordinates": [ 1.2893884, 6.2716728 ] } },
{ "type": "Feature", "properties": { "id": "osm_node_6279442698", "nom": "Marché d'Akaba", "type": "Rural", "source": "OSM", "lon": 1.0497173, "lat": 7.9535601, "prefecture": "Anié", "region": "Plateaux" }, "geometry": { "type": "Point", "coordinates": [ 1.0497173, 7.9535601 ] } },
{ "type": "Feature", "properties": { "id": "osm_node_6332097819", "nom": "Marché de Sévagan", "type": "Rural", "source": "OSM", "lon": 1.4286089, "lat": 6.2967113, "prefecture": "Vo", "region": "Maritime" }, "geometry": { "type": "Point", "coordinates": [ 1.4286089, 6.2967113 ] } },
{ "type": "Feature", "properties": { "id": "osm_node_6360150243", "nom": "Marché", "type": "Rural", "source": "OSM", "lon": 1.0422269, "lat": 8.1668843, "prefecture": "Blitta", "region": "Centrale" }, "geometry": { "type": "Point", "coordinates": [ 1.0422269, 8.1668843 ] } },
{ "type": "Feature", "properties": { "id": "osm_node_6423678480", "nom": "Petit marché", "type": "Rural", "source": "OSM", "lon": 1.1969893, "lat": 9.5899273, "prefecture": "Kozah", "region": "Kara" }, "geometry": { "type": "Point", "coordinates": [ 1.1969893, 9.5899273 ] } },
{ "type": "Feature", "properties": { "id": "osm_node_6423680185", "nom": "Petit marché", "type": "Rural", "source": "OSM", "lon": 1.1876944, "lat": 9.5874555, "prefecture": "Kozah", "region": "Kara" }, "geometry": { "type": "Point", "coordinates": [ 1.1876944, 9.5874555 ] } },
{ "type": "Feature", "properties": { "id": "osm_node_6510551893", "nom": "Marché de KARA", "type": "Rural", "source": "OSM", "lon": 1.1938396, "lat": 9.5640608, "prefecture": "Kozah", "region": "Kara" }, "geometry": { "type": "Point", "coordinates": [ 1.1938396, 9.5640608 ] } },
{ "type": "Feature", "properties": { "id": "osm_node_7070529816", "nom": "Marché de Betail", "type": "Rural", "source": "OSM", "lon": 1.1426982, "lat": 8.9874509, "prefecture": "Tchaoudjo", "region": "Centrale" }, "geometry": { "type": "Point", "coordinates": [ 1.1426982, 8.9874509 ] } },
{ "type": "Feature", "properties": { "id": "osm_node_7148322631", "nom": "Petit marché Kpalongo", "type": "Rural", "source": "OSM", "lon": 0.8937033, "lat": 7.37628, "prefecture": "Amou", "region": "Plateaux" }, "geometry": { "type": "Point", "coordinates": [ 0.8937033, 7.37628 ] } },
{ "type": "Feature", "properties": { "id": "osm_node_7282291607", "nom": "Marché de Landa", "type": "Rural", "source": "OSM", "lon": 1.2589867, "lat": 9.6652883, "prefecture": "Kozah", "region": "Kara" }, "geometry": { "type": "Point", "coordinates": [ 1.2589867, 9.6652883 ] } },
{ "type": "Feature", "properties": { "id": "osm_node_7383593728", "nom": "Nouveau marché d'Assanhoun", "type": "Rural", "source": "OSM", "lon": 0.9098375, "lat": 6.4473146, "prefecture": "Ave", "region": "Maritime" }, "geometry": { "type": "Point", "coordinates": [ 0.9098375, 6.4473146 ] } },
{ "type": "Feature", "properties": { "id": "osm_node_7384064402", "nom": "Marché", "type": "Rural", "source": "OSM", "lon": 1.4066657, "lat": 6.6599854, "prefecture": "Yoto", "region": "Maritime" }, "geometry": { "type": "Point", "coordinates": [ 1.4066657, 6.6599854 ] } },
{ "type": "Feature", "properties": { "id": "osm_node_7405047392", "nom": "Marché de Tchaloudè", "type": "Rural", "source": "OSM", "lon": 1.1187547, "lat": 8.2548593, "prefecture": "Blitta", "region": "Centrale" }, "geometry": { "type": "Point", "coordinates": [ 1.1187547, 8.2548593 ] } },
{ "type": "Feature", "properties": { "id": "osm_node_7613174078", "nom": "Marché de Broukou", "type": "Rural", "source": "OSM", "lon": 0.9192091, "lat": 9.7390046, "prefecture": "Doufelgou", "region": "Kara" }, "geometry": { "type": "Point", "coordinates": [ 0.9192091, 9.7390046 ] } },
{ "type": "Feature", "properties": { "id": "osm_node_7733065171", "nom": "Marché D'Anié", "type": "Rural", "source": "OSM", "lon": 1.1946189, "lat": 7.7651498, "prefecture": "Anié", "region": "Plateaux" }, "geometry": { "type": "Point", "coordinates": [ 1.1946189, 7.7651498 ] } },
{ "type": "Feature", "properties": { "id": "osm_node_7809893540", "nom": "Espace de vente de chaussures", "type": "Rural", "source": "OSM", "lon": 1.2307395, "lat": 6.1257839, "prefecture": "Lome Commune", "region": "Maritime" }, "geometry": { "type": "Point", "coordinates": [ 1.2307395, 6.1257839 ] } },
{ "type": "Feature", "properties": { "id": "osm_node_7935150805", "nom": "Marché de Siou", "type": "Rural", "source": "OSM", "lon": 1.2010396, "lat": 9.8224723, "prefecture": "Doufelgou", "region": "Kara" }, "geometry": { "type": "Point", "coordinates": [ 1.2010396, 9.8224723 ] } },
{ "type": "Feature", "properties": { "id": "osm_node_8130691653", "nom": "Marché de Kourier de Tandjouaré", "type": "Rural", "source": "OSM", "lon": 0.1967238, "lat": 10.6693975, "prefecture": "Tandjouare", "region": "Savanes" }, "geometry": { "type": "Point", "coordinates": [ 0.1967238, 10.6693975 ] } },
{ "type": "Feature", "properties": { "id": "osm_node_8130722072", "nom": "Grand marché de Tandjouaré", "type": "Urbain", "source": "OSM", "lon": 0.2046936, "lat": 10.6702068, "prefecture": "Tandjouare", "region": "Savanes" }, "geometry": { "type": "Point", "coordinates": [ 0.2046936, 10.6702068 ] } },
{ "type": "Feature", "properties": { "id": "osm_node_8130797794", "nom": "Marché de Pont-Noir", "type": "Rural", "source": "OSM", "lon": 0.2493138, "lat": 10.6087669, "prefecture": "Tandjouare", "region": "Savanes" }, "geometry": { "type": "Point", "coordinates": [ 0.2493138, 10.6087669 ] } },
{ "type": "Feature", "properties": { "id": "osm_node_8147233171", "nom": "Marché de Djarkpanga", "type": "Rural", "source": "OSM", "lon": 0.5647684, "lat": 8.7842286, "prefecture": "Plaine de Mô", "region": "Centrale" }, "geometry": { "type": "Point", "coordinates": [ 0.5647684, 8.7842286 ] } },
{ "type": "Feature", "properties": { "id": "osm_node_8150723922", "nom": "Takpamba", "type": "Rural", "source": "OSM", "lon": 0.5773134, "lat": 9.9700529, "prefecture": "Oti", "region": "Savanes" }, "geometry": { "type": "Point", "coordinates": [ 0.5773134, 9.9700529 ] } },
{ "type": "Feature", "properties": { "id": "osm_node_8221707767", "nom": "Marché de Maza", "type": "Rural", "source": "OSM", "lon": 1.1418127, "lat": 9.6428937, "prefecture": "Kozah", "region": "Kara" }, "geometry": { "type": "Point", "coordinates": [ 1.1418127, 9.6428937 ] } },
{ "type": "Feature", "properties": { "id": "osm_node_8221714474", "nom": "Marché de Pya Hodo", "type": "Rural", "source": "OSM", "lon": 1.1716705, "lat": 9.668767, "prefecture": "Kozah", "region": "Kara" }, "geometry": { "type": "Point", "coordinates": [ 1.1716705, 9.668767 ] } },
{ "type": "Feature", "properties": { "id": "osm_node_8222113370", "nom": "Marché de Defalé", "type": "Rural", "source": "OSM", "lon": 1.0884809, "lat": 9.870826, "prefecture": "Doufelgou", "region": "Kara" }, "geometry": { "type": "Point", "coordinates": [ 1.0884809, 9.870826 ] } },
{ "type": "Feature", "properties": { "id": "osm_node_8222133869", "nom": "Marché de Nano", "type": "Rural", "source": "OSM", "lon": 0.1123258, "lat": 10.7026887, "prefecture": "Tandjouare", "region": "Savanes" }, "geometry": { "type": "Point", "coordinates": [ 0.1123258, 10.7026887 ] } },
{ "type": "Feature", "properties": { "id": "osm_node_8222224568", "nom": "Marché", "type": "Rural", "source": "OSM", "lon": 0.0152539, "lat": 11.1055932, "prefecture": "Cinkassé", "region": "Savanes" }, "geometry": { "type": "Point", "coordinates": [ 0.0152539, 11.1055932 ] } },
{ "type": "Feature", "properties": { "id": "osm_node_8227924066", "nom": "Marché de Blitta Village a", "type": "Rural", "source": "OSM", "lon": 1.0077041, "lat": 8.3448149, "prefecture": "Blitta", "region": "Centrale" }, "geometry": { "type": "Point", "coordinates": [ 1.0077041, 8.3448149 ] } },
{ "type": "Feature", "properties": { "id": "osm_node_8316933716", "nom": "Marché de Dakrokossou", "type": "Rural", "source": "OSM", "lon": 1.0394874, "lat": 8.0068236, "prefecture": "Blitta", "region": "Centrale" }, "geometry": { "type": "Point", "coordinates": [ 1.0394874, 8.0068236 ] } },
{ "type": "Feature", "properties": { "id": "osm_node_8317075602", "nom": "Marché de Tcharè", "type": "Rural", "source": "OSM", "lon": 1.0038248, "lat": 8.0816327, "prefecture": "Blitta", "region": "Centrale" }, "geometry": { "type": "Point", "coordinates": [ 1.0038248, 8.0816327 ] } },
{ "type": "Feature", "properties": { "id": "osm_node_8350242976", "nom": "Marché de Kadjanga", "type": "Rural", "source": "OSM", "lon": 1.3361223, "lat": 9.7178462, "prefecture": "Binah", "region": "Kara" }, "geometry": { "type": "Point", "coordinates": [ 1.3361223, 9.7178462 ] } },
{ "type": "Feature", "properties": { "id": "osm_node_8350297586", "nom": "Un marché nocturne", "type": "Rural", "source": "OSM", "lon": 1.3543164, "lat": 9.6680903, "prefecture": "Binah", "region": "Kara" }, "geometry": { "type": "Point", "coordinates": [ 1.3543164, 9.6680903 ] } },
{ "type": "Feature", "properties": { "id": "osm_node_8350514778", "nom": "Marché", "type": "Rural", "source": "OSM", "lon": 1.3339001, "lat": 9.7098436, "prefecture": "Binah", "region": "Kara" }, "geometry": { "type": "Point", "coordinates": [ 1.3339001, 9.7098436 ] } },
{ "type": "Feature", "properties": { "id": "osm_node_8356812474", "nom": "Marché de nuit de Poukoulade", "type": "Rural", "source": "OSM", "lon": 1.311112, "lat": 9.6085462, "prefecture": "Binah", "region": "Kara" }, "geometry": { "type": "Point", "coordinates": [ 1.311112, 9.6085462 ] } },
{ "type": "Feature", "properties": { "id": "osm_node_8356843054", "nom": "Marché de Sirka", "type": "Rural", "source": "OSM", "lon": 1.3280797, "lat": 9.552614, "prefecture": "Binah", "region": "Kara" }, "geometry": { "type": "Point", "coordinates": [ 1.3280797, 9.552614 ] } },
{ "type": "Feature", "properties": { "id": "osm_node_8356843144", "nom": "Marché de boulédé", "type": "Rural", "source": "OSM", "lon": 1.3327937, "lat": 9.5439859, "prefecture": "Binah", "region": "Kara" }, "geometry": { "type": "Point", "coordinates": [ 1.3327937, 9.5439859 ] } },
{ "type": "Feature", "properties": { "id": "osm_node_8356843166", "nom": "Marché de N'djei", "type": "Rural", "source": "OSM", "lon": 1.3523859, "lat": 9.5099896, "prefecture": "Binah", "region": "Kara" }, "geometry": { "type": "Point", "coordinates": [ 1.3523859, 9.5099896 ] } },
{ "type": "Feature", "properties": { "id": "osm_node_8356843262", "nom": "Marché", "type": "Rural", "source": "OSM", "lon": 1.3532066, "lat": 9.4994609, "prefecture": "Binah", "region": "Kara" }, "geometry": { "type": "Point", "coordinates": [ 1.3532066, 9.4994609 ] } },
{ "type": "Feature", "properties": { "id": "osm_node_8362853839", "nom": "Marché de Lassa Ahodo", "type": "Rural", "source": "OSM", "lon": 1.2383079, "lat": 9.5959003, "prefecture": "Kozah", "region": "Kara" }, "geometry": { "type": "Point", "coordinates": [ 1.2383079, 9.5959003 ] } },
{ "type": "Feature", "properties": { "id": "osm_node_8362853864", "nom": "Marché", "type": "Rural", "source": "OSM", "lon": 1.2058635, "lat": 9.6420422, "prefecture": "Kozah", "region": "Kara" }, "geometry": { "type": "Point", "coordinates": [ 1.2058635, 9.6420422 ] } },
{ "type": "Feature", "properties": { "id": "osm_node_8362899031", "nom": "Marché", "type": "Rural", "source": "OSM", "lon": 1.2242648, "lat": 9.567722, "prefecture": "Kozah", "region": "Kara" }, "geometry": { "type": "Point", "coordinates": [ 1.2242648, 9.567722 ] } },
{ "type": "Feature", "properties": { "id": "osm_node_8362899053", "nom": "Marché Lassa Bas", "type": "Rural", "source": "OSM", "lon": 1.231944, "lat": 9.5795207, "prefecture": "Kozah", "region": "Kara" }, "geometry": { "type": "Point", "coordinates": [ 1.231944, 9.5795207 ] } },
{ "type": "Feature", "properties": { "id": "osm_node_8365529043", "nom": "Marché", "type": "Rural", "source": "OSM", "lon": 1.2534123, "lat": 9.6665105, "prefecture": "Kozah", "region": "Kara" }, "geometry": { "type": "Point", "coordinates": [ 1.2534123, 9.6665105 ] } },
{ "type": "Feature", "properties": { "id": "osm_node_8365529048", "nom": "Marche de nuit de mercredi", "type": "Rural", "source": "OSM", "lon": 1.2709433, "lat": 9.6555398, "prefecture": "Kozah", "region": "Kara" }, "geometry": { "type": "Point", "coordinates": [ 1.2709433, 9.6555398 ] } },
{ "type": "Feature", "properties": { "id": "osm_node_8365529052", "nom": "Marche de nuit de Panalo", "type": "Rural", "source": "OSM", "lon": 1.2688512, "lat": 9.661441, "prefecture": "Kozah", "region": "Kara" }, "geometry": { "type": "Point", "coordinates": [ 1.2688512, 9.661441 ] } },
{ "type": "Feature", "properties": { "id": "osm_node_8365529071", "nom": "Marche de nuit de Kasse", "type": "Rural", "source": "OSM", "lon": 1.2876266, "lat": 9.6587948, "prefecture": "Kozah", "region": "Kara" }, "geometry": { "type": "Point", "coordinates": [ 1.2876266, 9.6587948 ] } },
{ "type": "Feature", "properties": { "id": "osm_node_8365529073", "nom": "Marche de Kaade", "type": "Rural", "source": "OSM", "lon": 1.2030525, "lat": 9.6636429, "prefecture": "Kozah", "region": "Kara" }, "geometry": { "type": "Point", "coordinates": [ 1.2030525, 9.6636429 ] } },
{ "type": "Feature", "properties": { "id": "osm_node_8365529091", "nom": "Marche de nuit", "type": "Rural", "source": "OSM", "lon": 1.2456232, "lat": 9.6529035, "prefecture": "Kozah", "region": "Kara" }, "geometry": { "type": "Point", "coordinates": [ 1.2456232, 9.6529035 ] } },
{ "type": "Feature", "properties": { "id": "osm_node_8365529096", "nom": "Marché de Soumdina Bas", "type": "Rural", "source": "OSM", "lon": 1.2540346, "lat": 9.6418617, "prefecture": "Kozah", "region": "Kara" }, "geometry": { "type": "Point", "coordinates": [ 1.2540346, 9.6418617 ] } },
{ "type": "Feature", "properties": { "id": "osm_node_8365529102", "nom": "Marché", "type": "Rural", "source": "OSM", "lon": 1.252664, "lat": 9.6328861, "prefecture": "Kozah", "region": "Kara" }, "geometry": { "type": "Point", "coordinates": [ 1.252664, 9.6328861 ] } },
{ "type": "Feature", "properties": { "id": "osm_node_8365552422", "nom": "Marché", "type": "Rural", "source": "OSM", "lon": 1.1627537, "lat": 9.5421886, "prefecture": "Kozah", "region": "Kara" }, "geometry": { "type": "Point", "coordinates": [ 1.1627537, 9.5421886 ] } },
{ "type": "Feature", "properties": { "id": "osm_node_8370363805", "nom": "Marché", "type": "Rural", "source": "OSM", "lon": 1.0952653, "lat": 9.2755494, "prefecture": "Assoli", "region": "Kara" }, "geometry": { "type": "Point", "coordinates": [ 1.0952653, 9.2755494 ] } },
{ "type": "Feature", "properties": { "id": "osm_node_8370482153", "nom": "Marché Communnale", "type": "Rural", "source": "OSM", "lon": 1.2347388, "lat": 9.2772316, "prefecture": "Assoli", "region": "Kara" }, "geometry": { "type": "Point", "coordinates": [ 1.2347388, 9.2772316 ] } },
{ "type": "Feature", "properties": { "id": "osm_node_8370482216", "nom": "Marché DJIKORODE", "type": "Rural", "source": "OSM", "lon": 1.1876982, "lat": 9.2893341, "prefecture": "Assoli", "region": "Kara" }, "geometry": { "type": "Point", "coordinates": [ 1.1876982, 9.2893341 ] } },
{ "type": "Feature", "properties": { "id": "osm_node_8370486618", "nom": "Marché", "type": "Rural", "source": "OSM", "lon": 1.186325, "lat": 9.2895657, "prefecture": "Assoli", "region": "Kara" }, "geometry": { "type": "Point", "coordinates": [ 1.186325, 9.2895657 ] } },
{ "type": "Feature", "properties": { "id": "osm_node_8413676322", "nom": "Marché de Koumondè", "type": "Rural", "source": "OSM", "lon": 1.2392838, "lat": 9.2964691, "prefecture": "Assoli", "region": "Kara" }, "geometry": { "type": "Point", "coordinates": [ 1.2392838, 9.2964691 ] } },
{ "type": "Feature", "properties": { "id": "osm_node_8413676348", "nom": "Marché", "type": "Rural", "source": "OSM", "lon": 1.2379675, "lat": 9.3013656, "prefecture": "Assoli", "region": "Kara" }, "geometry": { "type": "Point", "coordinates": [ 1.2379675, 9.3013656 ] } },
{ "type": "Feature", "properties": { "id": "osm_node_8413676353", "nom": "Nouveau marché", "type": "Rural", "source": "OSM", "lon": 1.2374023, "lat": 9.2997249, "prefecture": "Assoli", "region": "Kara" }, "geometry": { "type": "Point", "coordinates": [ 1.2374023, 9.2997249 ] } },
{ "type": "Feature", "properties": { "id": "osm_node_8413676391", "nom": "Marché de fruit", "type": "Rural", "source": "OSM", "lon": 1.2385771, "lat": 9.3166203, "prefecture": "Assoli", "region": "Kara" }, "geometry": { "type": "Point", "coordinates": [ 1.2385771, 9.3166203 ] } },
{ "type": "Feature", "properties": { "id": "osm_node_8413676396", "nom": "Marché de Koulikouli", "type": "Rural", "source": "OSM", "lon": 1.2374324, "lat": 9.30351, "prefecture": "Assoli", "region": "Kara" }, "geometry": { "type": "Point", "coordinates": [ 1.2374324, 9.30351 ] } },
{ "type": "Feature", "properties": { "id": "osm_node_8427564209", "nom": "Marché", "type": "Rural", "source": "OSM", "lon": 0.5740772, "lat": 6.8477475, "prefecture": "Kloto", "region": "Plateaux" }, "geometry": { "type": "Point", "coordinates": [ 0.5740772, 6.8477475 ] } },
{ "type": "Feature", "properties": { "id": "osm_node_8427574835", "nom": "Marché de Gbalavé", "type": "Rural", "source": "OSM", "lon": 0.6010509, "lat": 6.8628602, "prefecture": "Kloto", "region": "Plateaux" }, "geometry": { "type": "Point", "coordinates": [ 0.6010509, 6.8628602 ] } },
{ "type": "Feature", "properties": { "id": "osm_node_8430049306", "nom": "Marché de Kovié", "type": "Rural", "source": "OSM", "lon": 1.1084691, "lat": 6.3412627, "prefecture": "Zio", "region": "Maritime" }, "geometry": { "type": "Point", "coordinates": [ 1.1084691, 6.3412627 ] } },
{ "type": "Feature", "properties": { "id": "osm_node_8447329666", "nom": "Marché inoccupé de Niamtougou", "type": "Rural", "source": "OSM", "lon": 1.1205465, "lat": 9.7849755, "prefecture": "Doufelgou", "region": "Kara" }, "geometry": { "type": "Point", "coordinates": [ 1.1205465, 9.7849755 ] } },
{ "type": "Feature", "properties": { "id": "osm_node_8451350951", "nom": "Marché", "type": "Rural", "source": "OSM", "lon": 1.1061886, "lat": 9.7883978, "prefecture": "Doufelgou", "region": "Kara" }, "geometry": { "type": "Point", "coordinates": [ 1.1061886, 9.7883978 ] } },
{ "type": "Feature", "properties": { "id": "osm_node_8551714810", "nom": "Amétosimé", "type": "Rural", "source": "OSM", "lon": 1.1720844, "lat": 6.2000617, "prefecture": "Golfe", "region": "Maritime" }, "geometry": { "type": "Point", "coordinates": [ 1.1720844, 6.2000617 ] } },
{ "type": "Feature", "properties": { "id": "osm_node_8567134386", "nom": "Marché de Mamissi", "type": "Rural", "source": "OSM", "lon": 1.6058171, "lat": 6.3804245, "prefecture": "Vo", "region": "Maritime" }, "geometry": { "type": "Point", "coordinates": [ 1.6058171, 6.3804245 ] } },
{ "type": "Feature", "properties": { "id": "osm_node_8567159659", "nom": "Marché", "type": "Rural", "source": "OSM", "lon": 1.5688254, "lat": 6.4717569, "prefecture": "Vo", "region": "Maritime" }, "geometry": { "type": "Point", "coordinates": [ 1.5688254, 6.4717569 ] } },
{ "type": "Feature", "properties": { "id": "osm_node_8567159677", "nom": "Marché", "type": "Rural", "source": "OSM", "lon": 1.5861337, "lat": 6.4157957, "prefecture": "Vo", "region": "Maritime" }, "geometry": { "type": "Point", "coordinates": [ 1.5861337, 6.4157957 ] } },
{ "type": "Feature", "properties": { "id": "osm_node_8567164737", "nom": "Marché de TSITSOGBE", "type": "Rural", "source": "OSM", "lon": 1.5747759, "lat": 6.3834153, "prefecture": "Vo", "region": "Maritime" }, "geometry": { "type": "Point", "coordinates": [ 1.5747759, 6.3834153 ] } },
{ "type": "Feature", "properties": { "id": "osm_node_8570257217", "nom": "Marché", "type": "Rural", "source": "OSM", "lon": 0.8856869, "lat": 6.3758436, "prefecture": "Ave", "region": "Maritime" }, "geometry": { "type": "Point", "coordinates": [ 0.8856869, 6.3758436 ] } },
{ "type": "Feature", "properties": { "id": "osm_node_8570331532", "nom": "Marché", "type": "Rural", "source": "OSM", "lon": 0.9310876, "lat": 6.4308024, "prefecture": "Ave", "region": "Maritime" }, "geometry": { "type": "Point", "coordinates": [ 0.9310876, 6.4308024 ] } },
{ "type": "Feature", "properties": { "id": "osm_node_8631441851", "nom": "Marché de Kati", "type": "Rural", "source": "OSM", "lon": 0.8491056, "lat": 6.8910471, "prefecture": "Agou", "region": "Plateaux" }, "geometry": { "type": "Point", "coordinates": [ 0.8491056, 6.8910471 ] } },
{ "type": "Feature", "properties": { "id": "osm_node_8733917082", "nom": "Marché de Vodoupé", "type": "Rural", "source": "OSM", "lon": 1.527445, "lat": 6.6728428, "prefecture": "Yoto", "region": "Maritime" }, "geometry": { "type": "Point", "coordinates": [ 1.527445, 6.6728428 ] } },
{ "type": "Feature", "properties": { "id": "osm_node_8755697927", "nom": "Marché de Logoté", "type": "Rural", "source": "OSM", "lon": 1.1289882, "lat": 6.1887937, "prefecture": "Golfe", "region": "Maritime" }, "geometry": { "type": "Point", "coordinates": [ 1.1289882, 6.1887937 ] } },
{ "type": "Feature", "properties": { "id": "osm_node_8759020306", "nom": "Marché", "type": "Rural", "source": "OSM", "lon": 1.2090085, "lat": 6.1776685, "prefecture": "Lome Commune", "region": "Maritime" }, "geometry": { "type": "Point", "coordinates": [ 1.2090085, 6.1776685 ] } },
{ "type": "Feature", "properties": { "id": "osm_node_8777852218", "nom": "Marché De Atikpaï", "type": "Rural", "source": "OSM", "lon": 1.1375946, "lat": 8.0860037, "prefecture": "Blitta", "region": "Centrale" }, "geometry": { "type": "Point", "coordinates": [ 1.1375946, 8.0860037 ] } },
{ "type": "Feature", "properties": { "id": "osm_node_8791862009", "nom": "Marché", "type": "Rural", "source": "OSM", "lon": 0.9264457, "lat": 8.3069581, "prefecture": "Blitta", "region": "Centrale" }, "geometry": { "type": "Point", "coordinates": [ 0.9264457, 8.3069581 ] } },
{ "type": "Feature", "properties": { "id": "osm_node_8797746711", "nom": "Marché", "type": "Rural", "source": "OSM", "lon": 0.3410731, "lat": 10.9669024, "prefecture": "Tone", "region": "Savanes" }, "geometry": { "type": "Point", "coordinates": [ 0.3410731, 10.9669024 ] } },
{ "type": "Feature", "properties": { "id": "osm_node_8797784717", "nom": "Marché de Tisante mampo", "type": "Rural", "source": "OSM", "lon": 0.3274494, "lat": 10.9911448, "prefecture": "Tone", "region": "Savanes" }, "geometry": { "type": "Point", "coordinates": [ 0.3274494, 10.9911448 ] } },
{ "type": "Feature", "properties": { "id": "osm_node_8797841439", "nom": "Marché de Tantonga carefour", "type": "Rural", "source": "OSM", "lon": 0.2984923, "lat": 10.9756038, "prefecture": "Tone", "region": "Savanes" }, "geometry": { "type": "Point", "coordinates": [ 0.2984923, 10.9756038 ] } },
{ "type": "Feature", "properties": { "id": "osm_node_8798032100", "nom": "Marché de Nabaou", "type": "Rural", "source": "OSM", "lon": 0.3325054, "lat": 10.8931972, "prefecture": "Tone", "region": "Savanes" }, "geometry": { "type": "Point", "coordinates": [ 0.3325054, 10.8931972 ] } },
{ "type": "Feature", "properties": { "id": "osm_node_8798036521", "nom": "Grand marché de Korbongou", "type": "Urbain", "source": "OSM", "lon": 0.3073007, "lat": 10.912362, "prefecture": "Tone", "region": "Savanes" }, "geometry": { "type": "Point", "coordinates": [ 0.3073007, 10.912362 ] } },
{ "type": "Feature", "properties": { "id": "osm_node_8798036528", "nom": "Marché", "type": "Rural", "source": "OSM", "lon": 0.2788344, "lat": 10.8950185, "prefecture": "Tone", "region": "Savanes" }, "geometry": { "type": "Point", "coordinates": [ 0.2788344, 10.8950185 ] } },
{ "type": "Feature", "properties": { "id": "osm_node_8798036593", "nom": "Marché", "type": "Rural", "source": "OSM", "lon": 0.2634734, "lat": 10.8998147, "prefecture": "Tone", "region": "Savanes" }, "geometry": { "type": "Point", "coordinates": [ 0.2634734, 10.8998147 ] } },
{ "type": "Feature", "properties": { "id": "osm_node_8798152537", "nom": "Marché de Gbagnama", "type": "Rural", "source": "OSM", "lon": 0.2996832, "lat": 10.9312767, "prefecture": "Tone", "region": "Savanes" }, "geometry": { "type": "Point", "coordinates": [ 0.2996832, 10.9312767 ] } },
{ "type": "Feature", "properties": { "id": "osm_node_8808692841", "nom": "Marché Tidante Momba", "type": "Rural", "source": "OSM", "lon": 0.3031915, "lat": 10.9961837, "prefecture": "Tone", "region": "Savanes" }, "geometry": { "type": "Point", "coordinates": [ 0.3031915, 10.9961837 ] } },
{ "type": "Feature", "properties": { "id": "osm_node_8808719663", "nom": "Marché", "type": "Rural", "source": "OSM", "lon": 0.2950309, "lat": 11.0443735, "prefecture": "Tone", "region": "Savanes" }, "geometry": { "type": "Point", "coordinates": [ 0.2950309, 11.0443735 ] } },
{ "type": "Feature", "properties": { "id": "osm_node_8808915191", "nom": "marché Nadjou", "type": "Rural", "source": "OSM", "lon": 0.3772259, "lat": 11.0004596, "prefecture": "Tone", "region": "Savanes" }, "geometry": { "type": "Point", "coordinates": [ 0.3772259, 11.0004596 ] } },
{ "type": "Feature", "properties": { "id": "osm_node_8853935140", "nom": "Marché à Bétail", "type": "Rural", "source": "OSM", "lon": 0.0305396, "lat": 11.104726, "prefecture": null, "region": "Savanes" }, "geometry": { "type": "Point", "coordinates": [ 0.0305396, 11.104726 ] } },
{ "type": "Feature", "properties": { "id": "osm_node_8853935183", "nom": "Grand Marché", "type": "Urbain", "source": "OSM", "lon": 0.0156614, "lat": 11.1037377, "prefecture": "Cinkassé", "region": "Savanes" }, "geometry": { "type": "Point", "coordinates": [ 0.0156614, 11.1037377 ] } },
{ "type": "Feature", "properties": { "id": "osm_node_8854640113", "nom": "Marché de Blitta Carrefour", "type": "Rural", "source": "OSM", "lon": 1.0192555, "lat": 8.3552751, "prefecture": "Blitta", "region": "Centrale" }, "geometry": { "type": "Point", "coordinates": [ 1.0192555, 8.3552751 ] } },
{ "type": "Feature", "properties": { "id": "osm_node_8854644938", "nom": "Marché de Yoloumde", "type": "Rural", "source": "OSM", "lon": 1.0835789, "lat": 8.3077782, "prefecture": "Blitta", "region": "Centrale" }, "geometry": { "type": "Point", "coordinates": [ 1.0835789, 8.3077782 ] } },
{ "type": "Feature", "properties": { "id": "osm_node_8855277030", "nom": "Marché", "type": "Rural", "source": "OSM", "lon": 1.4565267, "lat": 6.3372987, "prefecture": "Vo", "region": "Maritime" }, "geometry": { "type": "Point", "coordinates": [ 1.4565267, 6.3372987 ] } },
{ "type": "Feature", "properties": { "id": "osm_node_8855298743", "nom": "Marché d'Atchave", "type": "Rural", "source": "OSM", "lon": 0.6435625, "lat": 6.8310484, "prefecture": "Kloto", "region": "Plateaux" }, "geometry": { "type": "Point", "coordinates": [ 0.6435625, 6.8310484 ] } },
{ "type": "Feature", "properties": { "id": "osm_node_8855298761", "nom": "Marché de Tove", "type": "Rural", "source": "OSM", "lon": 0.653482, "lat": 6.8731505, "prefecture": "Kloto", "region": "Plateaux" }, "geometry": { "type": "Point", "coordinates": [ 0.653482, 6.8731505 ] } },
{ "type": "Feature", "properties": { "id": "osm_node_8855557823", "nom": "Marché Zossimé", "type": "Rural", "source": "OSM", "lon": 1.1513422, "lat": 6.2336406, "prefecture": "Golfe", "region": "Maritime" }, "geometry": { "type": "Point", "coordinates": [ 1.1513422, 6.2336406 ] } },
{ "type": "Feature", "properties": { "id": "osm_node_8872050246", "nom": "Marché", "type": "Rural", "source": "OSM", "lon": 1.0932684, "lat": 6.4395306, "prefecture": "Zio", "region": "Maritime" }, "geometry": { "type": "Point", "coordinates": [ 1.0932684, 6.4395306 ] } },
{ "type": "Feature", "properties": { "id": "osm_node_8904644859", "nom": "Marché", "type": "Rural", "source": "OSM", "lon": 1.1679062, "lat": 6.276993, "prefecture": "Golfe", "region": "Maritime" }, "geometry": { "type": "Point", "coordinates": [ 1.1679062, 6.276993 ] } },
{ "type": "Feature", "properties": { "id": "osm_node_8922931517", "nom": "Marché de M'poti", "type": "Rural", "source": "OSM", "lon": 0.773659, "lat": 8.2375375, "prefecture": "Blitta", "region": "Centrale" }, "geometry": { "type": "Point", "coordinates": [ 0.773659, 8.2375375 ] } },
{ "type": "Feature", "properties": { "id": "osm_node_8984095035", "nom": "Marché de Tampialime", "type": "Rural", "source": "OSM", "lon": 0.0032536, "lat": 10.7482454, "prefecture": "Tandjouare", "region": "Savanes" }, "geometry": { "type": "Point", "coordinates": [ 0.0032536, 10.7482454 ] } },
{ "type": "Feature", "properties": { "id": "osm_node_8984109146", "nom": "Marché", "type": "Rural", "source": "OSM", "lon": 0.2573567, "lat": 11.0051133, "prefecture": "Tone", "region": "Savanes" }, "geometry": { "type": "Point", "coordinates": [ 0.2573567, 11.0051133 ] } },
{ "type": "Feature", "properties": { "id": "osm_node_8991419377", "nom": "Marché", "type": "Rural", "source": "OSM", "lon": 0.1262033, "lat": 10.5821283, "prefecture": "Tandjouare", "region": "Savanes" }, "geometry": { "type": "Point", "coordinates": [ 0.1262033, 10.5821283 ] } },
{ "type": "Feature", "properties": { "id": "osm_node_8991442153", "nom": "Marché Noak louanbene", "type": "Rural", "source": "OSM", "lon": 0.1518903, "lat": 10.6114419, "prefecture": "Tandjouare", "region": "Savanes" }, "geometry": { "type": "Point", "coordinates": [ 0.1518903, 10.6114419 ] } },
{ "type": "Feature", "properties": { "id": "osm_node_9025489750", "nom": "Marché de Anfouin", "type": "Rural", "source": "OSM", "lon": 1.6071193, "lat": 6.3302973, "prefecture": "Lacs", "region": "Maritime" }, "geometry": { "type": "Point", "coordinates": [ 1.6071193, 6.3302973 ] } },
{ "type": "Feature", "properties": { "id": "osm_node_9026874315", "nom": "Marché", "type": "Rural", "source": "OSM", "lon": 0.6392713, "lat": 10.2364622, "prefecture": "Oti", "region": "Savanes" }, "geometry": { "type": "Point", "coordinates": [ 0.6392713, 10.2364622 ] } },
{ "type": "Feature", "properties": { "id": "osm_node_9050325936", "nom": "Marché de Dapankpergou", "type": "Rural", "source": "OSM", "lon": 0.2138066, "lat": 10.848687, "prefecture": "Tone", "region": "Savanes" }, "geometry": { "type": "Point", "coordinates": [ 0.2138066, 10.848687 ] } },
{ "type": "Feature", "properties": { "id": "osm_node_9053199525", "nom": "Marché", "type": "Rural", "source": "OSM", "lon": 0.9809241, "lat": 6.4479276, "prefecture": "Ave", "region": "Maritime" }, "geometry": { "type": "Point", "coordinates": [ 0.9809241, 6.4479276 ] } },
{ "type": "Feature", "properties": { "id": "osm_node_9053199529", "nom": "Marché", "type": "Rural", "source": "OSM", "lon": 0.9800912, "lat": 6.4467762, "prefecture": "Ave", "region": "Maritime" }, "geometry": { "type": "Point", "coordinates": [ 0.9800912, 6.4467762 ] } },
{ "type": "Feature", "properties": { "id": "osm_node_9053455704", "nom": "Marché", "type": "Rural", "source": "OSM", "lon": 0.7273252, "lat": 6.8882871, "prefecture": "Agou", "region": "Plateaux" }, "geometry": { "type": "Point", "coordinates": [ 0.7273252, 6.8882871 ] } },
{ "type": "Feature", "properties": { "id": "osm_node_9053465025", "nom": "Marché", "type": "Rural", "source": "OSM", "lon": 0.6788993, "lat": 6.8344279, "prefecture": "Agou", "region": "Plateaux" }, "geometry": { "type": "Point", "coordinates": [ 0.6788993, 6.8344279 ] } },
{ "type": "Feature", "properties": { "id": "osm_node_9053465058", "nom": "Marché de fruit", "type": "Rural", "source": "OSM", "lon": 0.6690006, "lat": 6.8733776, "prefecture": "Kloto", "region": "Plateaux" }, "geometry": { "type": "Point", "coordinates": [ 0.6690006, 6.8733776 ] } },
{ "type": "Feature", "properties": { "id": "osm_node_9053482649", "nom": "Marché", "type": "Rural", "source": "OSM", "lon": 0.7705316, "lat": 6.8897237, "prefecture": "Agou", "region": "Plateaux" }, "geometry": { "type": "Point", "coordinates": [ 0.7705316, 6.8897237 ] } },
{ "type": "Feature", "properties": { "id": "osm_node_9053482652", "nom": "Marché de fruit", "type": "Rural", "source": "OSM", "lon": 0.7710466, "lat": 6.8911962, "prefecture": "Agou", "region": "Plateaux" }, "geometry": { "type": "Point", "coordinates": [ 0.7710466, 6.8911962 ] } },
{ "type": "Feature", "properties": { "id": "osm_node_9053536616", "nom": "Marché", "type": "Rural", "source": "OSM", "lon": 0.7052466, "lat": 6.7952461, "prefecture": "Agou", "region": "Plateaux" }, "geometry": { "type": "Point", "coordinates": [ 0.7052466, 6.7952461 ] } },
{ "type": "Feature", "properties": { "id": "osm_node_9053559727", "nom": "Marché", "type": "Rural", "source": "OSM", "lon": 0.7599208, "lat": 6.7502823, "prefecture": "Agou", "region": "Plateaux" }, "geometry": { "type": "Point", "coordinates": [ 0.7599208, 6.7502823 ] } },
{ "type": "Feature", "properties": { "id": "osm_node_9053559738", "nom": "Marché d'igname", "type": "Rural", "source": "OSM", "lon": 0.7948378, "lat": 6.7950902, "prefecture": "Agou", "region": "Plateaux" }, "geometry": { "type": "Point", "coordinates": [ 0.7948378, 6.7950902 ] } },
{ "type": "Feature", "properties": { "id": "osm_node_9060223590", "nom": "Marché de Nadjoundji", "type": "Rural", "source": "OSM", "lon": 0.186321, "lat": 11.007238, "prefecture": "Cinkassé", "region": "Savanes" }, "geometry": { "type": "Point", "coordinates": [ 0.186321, 11.007238 ] } },
{ "type": "Feature", "properties": { "id": "osm_node_9060361841", "nom": "Marché de Nadjoundi", "type": "Rural", "source": "OSM", "lon": 0.1912065, "lat": 11.0120318, "prefecture": "Cinkassé", "region": "Savanes" }, "geometry": { "type": "Point", "coordinates": [ 0.1912065, 11.0120318 ] } },
{ "type": "Feature", "properties": { "id": "osm_node_9060604163", "nom": "Marché de Kourientre", "type": "Rural", "source": "OSM", "lon": 0.231925, "lat": 11.0134428, "prefecture": "Cinkassé", "region": "Savanes" }, "geometry": { "type": "Point", "coordinates": [ 0.231925, 11.0134428 ] } },
{ "type": "Feature", "properties": { "id": "osm_node_9061853224", "nom": "Marché de tomonga", "type": "Rural", "source": "OSM", "lon": 0.2679126, "lat": 10.9442171, "prefecture": "Tone", "region": "Savanes" }, "geometry": { "type": "Point", "coordinates": [ 0.2679126, 10.9442171 ] } },
{ "type": "Feature", "properties": { "id": "osm_node_9062096946", "nom": "Marché de Bougou", "type": "Rural", "source": "OSM", "lon": 0.261224, "lat": 10.9815076, "prefecture": "Tone", "region": "Savanes" }, "geometry": { "type": "Point", "coordinates": [ 0.261224, 10.9815076 ] } },
{ "type": "Feature", "properties": { "id": "osm_node_9062859183", "nom": "Marché de Djakpaga", "type": "Rural", "source": "OSM", "lon": 0.2381046, "lat": 11.061029, "prefecture": "Tone", "region": "Savanes" }, "geometry": { "type": "Point", "coordinates": [ 0.2381046, 11.061029 ] } },
{ "type": "Feature", "properties": { "id": "osm_node_9066263042", "nom": "Marché", "type": "Rural", "source": "OSM", "lon": 0.1360805, "lat": 10.8557528, "prefecture": "Tone", "region": "Savanes" }, "geometry": { "type": "Point", "coordinates": [ 0.1360805, 10.8557528 ] } },
{ "type": "Feature", "properties": { "id": "osm_node_9067194204", "nom": "Marché de Tonte", "type": "Rural", "source": "OSM", "lon": 0.1011529, "lat": 10.8185822, "prefecture": "Tone", "region": "Savanes" }, "geometry": { "type": "Point", "coordinates": [ 0.1011529, 10.8185822 ] } },
{ "type": "Feature", "properties": { "id": "osm_node_9070583653", "nom": "Marché", "type": "Rural", "source": "OSM", "lon": 0.0447789, "lat": 10.82819, "prefecture": "Tone", "region": "Savanes" }, "geometry": { "type": "Point", "coordinates": [ 0.0447789, 10.82819 ] } },
{ "type": "Feature", "properties": { "id": "osm_node_9074219327", "nom": "Marché de Lotogou", "type": "Rural", "source": "OSM", "lon": 0.0252434, "lat": 10.7987089, "prefecture": "Tone", "region": "Savanes" }, "geometry": { "type": "Point", "coordinates": [ 0.0252434, 10.7987089 ] } },
{ "type": "Feature", "properties": { "id": "osm_node_9074219522", "nom": "Marché de Tami", "type": "Rural", "source": "OSM", "lon": 0.0402895, "lat": 10.8582078, "prefecture": "Tone", "region": "Savanes" }, "geometry": { "type": "Point", "coordinates": [ 0.0402895, 10.8582078 ] } },
{ "type": "Feature", "properties": { "id": "osm_node_9081901749", "nom": "Marché de Gnabadjoani", "type": "Rural", "source": "OSM", "lon": 0.129899, "lat": 10.9807058, "prefecture": "Tone", "region": "Savanes" }, "geometry": { "type": "Point", "coordinates": [ 0.129899, 10.9807058 ] } },
{ "type": "Feature", "properties": { "id": "osm_node_9082105007", "nom": "Marché de Namaré", "type": "Rural", "source": "OSM", "lon": 0.0876422, "lat": 10.9873753, "prefecture": "Tone", "region": "Savanes" }, "geometry": { "type": "Point", "coordinates": [ 0.0876422, 10.9873753 ] } },
{ "type": "Feature", "properties": { "id": "osm_node_9083673356", "nom": "Marché", "type": "Rural", "source": "OSM", "lon": 0.0202397, "lat": 10.8930786, "prefecture": "Tone", "region": "Savanes" }, "geometry": { "type": "Point", "coordinates": [ 0.0202397, 10.8930786 ] } },
{ "type": "Feature", "properties": { "id": "osm_node_9094648871", "nom": "Marché de Boulogou", "type": "Rural", "source": "OSM", "lon": 0.2378091, "lat": 10.6924169, "prefecture": "Tandjouare", "region": "Savanes" }, "geometry": { "type": "Point", "coordinates": [ 0.2378091, 10.6924169 ] } },
{ "type": "Feature", "properties": { "id": "osm_node_9105490007", "nom": "Marché de Dalwak", "type": "Rural", "source": "OSM", "lon": 0.1830931, "lat": 10.8163789, "prefecture": "Tone", "region": "Savanes" }, "geometry": { "type": "Point", "coordinates": [ 0.1830931, 10.8163789 ] } },
{ "type": "Feature", "properties": { "id": "osm_node_9114864338", "nom": "Marché de Boulogou", "type": "Rural", "source": "OSM", "lon": 0.2982871, "lat": 10.6215964, "prefecture": "Tandjouare", "region": "Savanes" }, "geometry": { "type": "Point", "coordinates": [ 0.2982871, 10.6215964 ] } },
{ "type": "Feature", "properties": { "id": "osm_node_9116894782", "nom": "Marché de kolk II", "type": "Rural", "source": "OSM", "lon": 0.3199847, "lat": 10.6326367, "prefecture": "Tandjouare", "region": "Savanes" }, "geometry": { "type": "Point", "coordinates": [ 0.3199847, 10.6326367 ] } },
{ "type": "Feature", "properties": { "id": "osm_node_9117377474", "nom": "Marché", "type": "Rural", "source": "OSM", "lon": 0.1521506, "lat": 10.7169643, "prefecture": "Tandjouare", "region": "Savanes" }, "geometry": { "type": "Point", "coordinates": [ 0.1521506, 10.7169643 ] } },
{ "type": "Feature", "properties": { "id": "osm_node_9119644519", "nom": "Marché de Nassiete", "type": "Rural", "source": "OSM", "lon": 0.1781629, "lat": 10.7290482, "prefecture": "Tandjouare", "region": "Savanes" }, "geometry": { "type": "Point", "coordinates": [ 0.1781629, 10.7290482 ] } },
{ "type": "Feature", "properties": { "id": "osm_node_9120504217", "nom": "Marché", "type": "Rural", "source": "OSM", "lon": 0.0955426, "lat": 10.699229, "prefecture": "Tandjouare", "region": "Savanes" }, "geometry": { "type": "Point", "coordinates": [ 0.0955426, 10.699229 ] } },
{ "type": "Feature", "properties": { "id": "osm_node_9127169624", "nom": "Marché de Nayega", "type": "Rural", "source": "OSM", "lon": 0.4091369, "lat": 10.7518342, "prefecture": "Kpendjal", "region": "Savanes" }, "geometry": { "type": "Point", "coordinates": [ 0.4091369, 10.7518342 ] } },
{ "type": "Feature", "properties": { "id": "osm_node_9129749073", "nom": "Marché de Ogaro", "type": "Rural", "source": "OSM", "lon": 0.4706028, "lat": 10.7435959, "prefecture": "Kpendjal", "region": "Savanes" }, "geometry": { "type": "Point", "coordinates": [ 0.4706028, 10.7435959 ] } },
{ "type": "Feature", "properties": { "id": "osm_node_9145714310", "nom": "Marché", "type": "Rural", "source": "OSM", "lon": 0.4029299, "lat": 10.2450692, "prefecture": "Oti", "region": "Savanes" }, "geometry": { "type": "Point", "coordinates": [ 0.4029299, 10.2450692 ] } },
{ "type": "Feature", "properties": { "id": "osm_node_9156357131", "nom": "Marché de kovié", "type": "Rural", "source": "OSM", "lon": 1.0998471, "lat": 6.3398066, "prefecture": "Zio", "region": "Maritime" }, "geometry": { "type": "Point", "coordinates": [ 1.0998471, 6.3398066 ] } },
{ "type": "Feature", "properties": { "id": "osm_node_9165194868", "nom": "Marché", "type": "Rural", "source": "OSM", "lon": 0.7323027, "lat": 10.5654838, "prefecture": "Oti", "region": "Savanes" }, "geometry": { "type": "Point", "coordinates": [ 0.7323027, 10.5654838 ] } },
{ "type": "Feature", "properties": { "id": "osm_node_9210413322", "nom": "Marché de Takpamba", "type": "Rural", "source": "OSM", "lon": 0.5738543, "lat": 9.9690381, "prefecture": "Oti", "region": "Savanes" }, "geometry": { "type": "Point", "coordinates": [ 0.5738543, 9.9690381 ] } },
{ "type": "Feature", "properties": { "id": "osm_node_9258068318", "nom": "Marché de Pagala", "type": "Rural", "source": "OSM", "lon": 0.9808985, "lat": 8.1736514, "prefecture": "Blitta", "region": "Centrale" }, "geometry": { "type": "Point", "coordinates": [ 0.9808985, 8.1736514 ] } },
{ "type": "Feature", "properties": { "id": "osm_node_9275708662", "nom": "Tantilgle", "type": "Rural", "source": "OSM", "lon": 0.1960321, "lat": 10.8127636, "prefecture": "Tone", "region": "Savanes" }, "geometry": { "type": "Point", "coordinates": [ 0.1960321, 10.8127636 ] } },
{ "type": "Feature", "properties": { "id": "osm_node_9306404021", "nom": "Marché Nioukpourma", "type": "Rural", "source": "OSM", "lon": 0.1338485, "lat": 10.830226, "prefecture": "Tone", "region": "Savanes" }, "geometry": { "type": "Point", "coordinates": [ 0.1338485, 10.830226 ] } },
{ "type": "Feature", "properties": { "id": "osm_node_9340489560", "nom": "Marché de Togoville", "type": "Urbain", "source": "OSM", "lon": 1.4817482, "lat": 6.2457739, "prefecture": "Vo", "region": "Maritime" }, "geometry": { "type": "Point", "coordinates": [ 1.4817482, 6.2457739 ] } },
{ "type": "Feature", "properties": { "id": "osm_node_9346840691", "nom": "Marché", "type": "Rural", "source": "OSM", "lon": 1.5934119, "lat": 7.1424496, "prefecture": "Moyen-Mono", "region": "Plateaux" }, "geometry": { "type": "Point", "coordinates": [ 1.5934119, 7.1424496 ] } },
{ "type": "Feature", "properties": { "id": "osm_node_9357913671", "nom": "Marché de tchékpo", "type": "Rural", "source": "OSM", "lon": 1.3592878, "lat": 6.5343014, "prefecture": "Yoto", "region": "Maritime" }, "geometry": { "type": "Point", "coordinates": [ 1.3592878, 6.5343014 ] } },
{ "type": "Feature", "properties": { "id": "osm_node_9360246688", "nom": "Marché de Djankassé", "type": "Rural", "source": "OSM", "lon": 1.5596103, "lat": 6.2468007, "prefecture": "Vo", "region": "Maritime" }, "geometry": { "type": "Point", "coordinates": [ 1.5596103, 6.2468007 ] } },
{ "type": "Feature", "properties": { "id": "osm_node_9360321939", "nom": "Marché de Kéta-akoda", "type": "Rural", "source": "OSM", "lon": 1.5549408, "lat": 6.2471595, "prefecture": "Vo", "region": "Maritime" }, "geometry": { "type": "Point", "coordinates": [ 1.5549408, 6.2471595 ] } },
{ "type": "Feature", "properties": { "id": "osm_node_9363693003", "nom": "Marché d'Hahotoé", "type": "Rural", "source": "OSM", "lon": 1.418421, "lat": 6.366963, "prefecture": "Vo", "region": "Maritime" }, "geometry": { "type": "Point", "coordinates": [ 1.418421, 6.366963 ] } },
{ "type": "Feature", "properties": { "id": "osm_node_9366671394", "nom": "Marché de Togoville", "type": "Urbain", "source": "OSM", "lon": 1.4837136, "lat": 6.2438323, "prefecture": "Vo", "region": "Maritime" }, "geometry": { "type": "Point", "coordinates": [ 1.4837136, 6.2438323 ] } },
{ "type": "Feature", "properties": { "id": "osm_node_9426488621", "nom": "Marché", "type": "Rural", "source": "OSM", "lon": 1.1615467, "lat": 7.3165832, "prefecture": "Ogou", "region": "Plateaux" }, "geometry": { "type": "Point", "coordinates": [ 1.1615467, 7.3165832 ] } },
{ "type": "Feature", "properties": { "id": "osm_node_9518890028", "nom": "Marché de Bitchabé", "type": "Rural", "source": "OSM", "lon": 0.5834741, "lat": 9.3239314, "prefecture": "Bassar", "region": "Kara" }, "geometry": { "type": "Point", "coordinates": [ 0.5834741, 9.3239314 ] } },
{ "type": "Feature", "properties": { "id": "osm_node_9692735701", "nom": "Marché de Kegué", "type": "Rural", "source": "OSM", "lon": 1.2411082, "lat": 6.200009, "prefecture": "Golfe", "region": "Maritime" }, "geometry": { "type": "Point", "coordinates": [ 1.2411082, 6.200009 ] } },
{ "type": "Feature", "properties": { "id": "osm_node_9873076010", "nom": "Marché", "type": "Rural", "source": "OSM", "lon": 1.2813413, "lat": 9.7617078, "prefecture": "Binah", "region": "Kara" }, "geometry": { "type": "Point", "coordinates": [ 1.2813413, 9.7617078 ] } },
{ "type": "Feature", "properties": { "id": "osm_node_9881564668", "nom": "Marché de Noépé", "type": "Rural", "source": "OSM", "lon": 1.0362929, "lat": 6.2607187, "prefecture": "Ave", "region": "Maritime" }, "geometry": { "type": "Point", "coordinates": [ 1.0362929, 6.2607187 ] } },
{ "type": "Feature", "properties": { "id": "osm_node_9885292978", "nom": "Marché de Naki-Ouest centre", "type": "Rural", "source": "OSM", "lon": 0.092842, "lat": 10.9063313, "prefecture": "Tone", "region": "Savanes" }, "geometry": { "type": "Point", "coordinates": [ 0.092842, 10.9063313 ] } },
{ "type": "Feature", "properties": { "id": "osm_node_9889692729", "nom": "Marché", "type": "Rural", "source": "OSM", "lon": 0.3450179, "lat": 10.687016, "prefecture": "Oti", "region": "Savanes" }, "geometry": { "type": "Point", "coordinates": [ 0.3450179, 10.687016 ] } },
{ "type": "Feature", "properties": { "id": "osm_node_9969272173", "nom": "Marché de bétail", "type": "Rural", "source": "OSM", "lon": 0.199185, "lat": 10.8644708, "prefecture": "Tone", "region": "Savanes" }, "geometry": { "type": "Point", "coordinates": [ 0.199185, 10.8644708 ] } },
{ "type": "Feature", "properties": { "id": "osm_node_10003732986", "nom": "Tomone", "type": "Rural", "source": "OSM", "lon": 0.1885419, "lat": 10.8667579, "prefecture": "Tone", "region": "Savanes" }, "geometry": { "type": "Point", "coordinates": [ 0.1885419, 10.8667579 ] } },
{ "type": "Feature", "properties": { "id": "osm_node_10237731387", "nom": "Marché de Tchékita", "type": "Rural", "source": "OSM", "lon": 1.343385, "lat": 8.191855, "prefecture": "Est-Mono", "region": "Plateaux" }, "geometry": { "type": "Point", "coordinates": [ 1.343385, 8.191855 ] } },
{ "type": "Feature", "properties": { "id": "osm_node_10246938499", "nom": "Marché Kovié", "type": "Rural", "source": "OSM", "lon": 1.0999954, "lat": 6.3393317, "prefecture": "Zio", "region": "Maritime" }, "geometry": { "type": "Point", "coordinates": [ 1.0999954, 6.3393317 ] } },
{ "type": "Feature", "properties": { "id": "osm_node_10562377526", "nom": "Marché", "type": "Rural", "source": "OSM", "lon": 1.1765684, "lat": 6.2581565, "prefecture": "Golfe", "region": "Maritime" }, "geometry": { "type": "Point", "coordinates": [ 1.1765684, 6.2581565 ] } },
{ "type": "Feature", "properties": { "id": "osm_node_10573359571", "nom": "Marché Agbatitoe", "type": "Rural", "source": "OSM", "lon": 1.1517918, "lat": 7.0707017, "prefecture": "Haho", "region": "Plateaux" }, "geometry": { "type": "Point", "coordinates": [ 1.1517918, 7.0707017 ] } },
{ "type": "Feature", "properties": { "id": "osm_node_10608610508", "nom": "Marché", "type": "Rural", "source": "OSM", "lon": 1.1812717, "lat": 7.6488601, "prefecture": "Ogou", "region": "Plateaux" }, "geometry": { "type": "Point", "coordinates": [ 1.1812717, 7.6488601 ] } },
{ "type": "Feature", "properties": { "id": "osm_node_10782291059", "nom": "BLAKPA (GRAND MARCHÉ)", "type": "Urbain", "source": "OSM", "lon": 1.1219613, "lat": 7.5321155, "prefecture": "Ogou", "region": "Plateaux" }, "geometry": { "type": "Point", "coordinates": [ 1.1219613, 7.5321155 ] } },
{ "type": "Feature", "properties": { "id": "osm_node_10782291060", "nom": "Agbadou-sada", "type": "Rural", "source": "OSM", "lon": 1.1501923, "lat": 7.5447472, "prefecture": "Ogou", "region": "Plateaux" }, "geometry": { "type": "Point", "coordinates": [ 1.1501923, 7.5447472 ] } },
{ "type": "Feature", "properties": { "id": "osm_node_10782291071", "nom": "Marché Akpatchou", "type": "Rural", "source": "OSM", "lon": 1.1545154, "lat": 7.5349379, "prefecture": "Ogou", "region": "Plateaux" }, "geometry": { "type": "Point", "coordinates": [ 1.1545154, 7.5349379 ] } },
{ "type": "Feature", "properties": { "id": "osm_node_10783807040", "nom": "Marché Datiho", "type": "Rural", "source": "OSM", "lon": 1.0529986, "lat": 6.7274742, "prefecture": "Zio", "region": "Maritime" }, "geometry": { "type": "Point", "coordinates": [ 1.0529986, 6.7274742 ] } },
{ "type": "Feature", "properties": { "id": "osm_node_10783821911", "nom": "Marche kodje", "type": "Rural", "source": "OSM", "lon": 1.0204732, "lat": 6.7261649, "prefecture": "Zio", "region": "Maritime" }, "geometry": { "type": "Point", "coordinates": [ 1.0204732, 6.7261649 ] } },
{ "type": "Feature", "properties": { "id": "osm_node_10812137261", "nom": "Marché de Barkoissi", "type": "Rural", "source": "OSM", "lon": 0.3010699, "lat": 10.554283, "prefecture": "Oti", "region": "Savanes" }, "geometry": { "type": "Point", "coordinates": [ 0.3010699, 10.554283 ] } },
{ "type": "Feature", "properties": { "id": "osm_node_10819490165", "nom": "Marché de Tchitchao", "type": "Rural", "source": "OSM", "lon": 1.1422026, "lat": 9.6208486, "prefecture": "Kozah", "region": "Kara" }, "geometry": { "type": "Point", "coordinates": [ 1.1422026, 9.6208486 ] } },
{ "type": "Feature", "properties": { "id": "osm_node_10825058897", "nom": "Marché de Djamdè", "type": "Rural", "source": "OSM", "lon": 1.0499687, "lat": 9.5127173, "prefecture": "Kozah", "region": "Kara" }, "geometry": { "type": "Point", "coordinates": [ 1.0499687, 9.5127173 ] } },
{ "type": "Feature", "properties": { "id": "osm_node_10976934731", "nom": "Marché de Malagou", "type": "Rural", "source": "OSM", "lon": 0.0733127, "lat": 10.6639182, "prefecture": "Tandjouare", "region": "Savanes" }, "geometry": { "type": "Point", "coordinates": [ 0.0733127, 10.6639182 ] } },
{ "type": "Feature", "properties": { "id": "osm_node_10990413186", "nom": "Marché de Gbotossimé", "type": "Rural", "source": "OSM", "lon": 1.1811768, "lat": 6.1868223, "prefecture": "Golfe", "region": "Maritime" }, "geometry": { "type": "Point", "coordinates": [ 1.1811768, 6.1868223 ] } },
{ "type": "Feature", "properties": { "id": "osm_node_11059399154", "nom": "Marché", "type": "Rural", "source": "OSM", "lon": 1.2441279, "lat": 9.6132311, "prefecture": "Kozah", "region": "Kara" }, "geometry": { "type": "Point", "coordinates": [ 1.2441279, 9.6132311 ] } },
{ "type": "Feature", "properties": { "id": "osm_node_11069023723", "nom": "Marché de Yadè", "type": "Rural", "source": "OSM", "lon": 1.1562923, "lat": 9.6174795, "prefecture": "Kozah", "region": "Kara" }, "geometry": { "type": "Point", "coordinates": [ 1.1562923, 9.6174795 ] } },
{ "type": "Feature", "properties": { "id": "osm_node_11083397731", "nom": "Marché de Blitta", "type": "Rural", "source": "OSM", "lon": 0.9963387, "lat": 8.3374893, "prefecture": "Blitta", "region": "Centrale" }, "geometry": { "type": "Point", "coordinates": [ 0.9963387, 8.3374893 ] } },
{ "type": "Feature", "properties": { "id": "osm_node_11084142544", "nom": "Marché", "type": "Rural", "source": "OSM", "lon": 1.0102379, "lat": 8.3512228, "prefecture": "Blitta", "region": "Centrale" }, "geometry": { "type": "Point", "coordinates": [ 1.0102379, 8.3512228 ] } },
{ "type": "Feature", "properties": { "id": "osm_node_11084995063", "nom": "Marché", "type": "Rural", "source": "OSM", "lon": 0.4655671, "lat": 9.7828292, "prefecture": "Dankpen", "region": "Kara" }, "geometry": { "type": "Point", "coordinates": [ 0.4655671, 9.7828292 ] } },
{ "type": "Feature", "properties": { "id": "osm_node_11166039919", "nom": "Marché de Tcharè-Baou", "type": "Rural", "source": "OSM", "lon": 1.0186493, "lat": 8.0581248, "prefecture": "Blitta", "region": "Centrale" }, "geometry": { "type": "Point", "coordinates": [ 1.0186493, 8.0581248 ] } },
{ "type": "Feature", "properties": { "id": "osm_node_11166585380", "nom": "Marché", "type": "Rural", "source": "OSM", "lon": 0.995416, "lat": 8.4322551, "prefecture": "Sotouboua", "region": "Centrale" }, "geometry": { "type": "Point", "coordinates": [ 0.995416, 8.4322551 ] } },
{ "type": "Feature", "properties": { "id": "osm_node_11183878986", "nom": "Marché d'Amou-Oblo", "type": "Rural", "source": "OSM", "lon": 0.8678036, "lat": 7.3901646, "prefecture": "Amou", "region": "Plateaux" }, "geometry": { "type": "Point", "coordinates": [ 0.8678036, 7.3901646 ] } },
{ "type": "Feature", "properties": { "id": "osm_node_11184607923", "nom": "Marché", "type": "Rural", "source": "OSM", "lon": 0.9398541, "lat": 8.6826658, "prefecture": "Sotouboua", "region": "Centrale" }, "geometry": { "type": "Point", "coordinates": [ 0.9398541, 8.6826658 ] } },
{ "type": "Feature", "properties": { "id": "osm_node_11213292198", "nom": "Marché de Gamé", "type": "Rural", "source": "OSM", "lon": 1.1719163, "lat": 6.727106, "prefecture": "Zio", "region": "Maritime" }, "geometry": { "type": "Point", "coordinates": [ 1.1719163, 6.727106 ] } },
{ "type": "Feature", "properties": { "id": "osm_node_11223334923", "nom": "Marché de hanoukopé N'tisimé", "type": "Rural", "source": "OSM", "lon": 1.218232, "lat": 6.1385611, "prefecture": "Lome Commune", "region": "Maritime" }, "geometry": { "type": "Point", "coordinates": [ 1.218232, 6.1385611 ] } },
{ "type": "Feature", "properties": { "id": "osm_node_11234551199", "nom": "Marché d'Agbélouvé", "type": "Rural", "source": "OSM", "lon": 1.1682405, "lat": 6.6813858, "prefecture": "Zio", "region": "Maritime" }, "geometry": { "type": "Point", "coordinates": [ 1.1682405, 6.6813858 ] } },
{ "type": "Feature", "properties": { "id": "osm_node_11234617438", "nom": "Marché de Lilikopé", "type": "Rural", "source": "OSM", "lon": 1.1844296, "lat": 6.5556926, "prefecture": "Zio", "region": "Maritime" }, "geometry": { "type": "Point", "coordinates": [ 1.1844296, 6.5556926 ] } },
{ "type": "Feature", "properties": { "id": "osm_node_11234619176", "nom": "Marché des bétails", "type": "Rural", "source": "OSM", "lon": 1.2145949, "lat": 6.306199, "prefecture": "Zio", "region": "Maritime" }, "geometry": { "type": "Point", "coordinates": [ 1.2145949, 6.306199 ] } },
{ "type": "Feature", "properties": { "id": "osm_node_11248766494", "nom": "Marché", "type": "Rural", "source": "OSM", "lon": 1.1090855, "lat": 7.0852819, "prefecture": "Haho", "region": "Plateaux" }, "geometry": { "type": "Point", "coordinates": [ 1.1090855, 7.0852819 ] } },
{ "type": "Feature", "properties": { "id": "osm_node_11250836920", "nom": "Marché Akpakpakpé", "type": "Rural", "source": "OSM", "lon": 1.0672778, "lat": 7.1175382, "prefecture": "Ogou", "region": "Plateaux" }, "geometry": { "type": "Point", "coordinates": [ 1.0672778, 7.1175382 ] } },
{ "type": "Feature", "properties": { "id": "osm_node_11323101849", "nom": "Marché de Sangayinlao", "type": "Rural", "source": "OSM", "lon": 1.307841, "lat": 9.5896146, "prefecture": "Binah", "region": "Kara" }, "geometry": { "type": "Point", "coordinates": [ 1.307841, 9.5896146 ] } },
{ "type": "Feature", "properties": { "id": "osm_node_11330086947", "nom": "Marché de Takpapiani", "type": "Rural", "source": "OSM", "lon": 0.8729653, "lat": 10.2552291, "prefecture": "Oti", "region": "Savanes" }, "geometry": { "type": "Point", "coordinates": [ 0.8729653, 10.2552291 ] } },
{ "type": "Feature", "properties": { "id": "osm_node_11359949506", "nom": "Marché de nyekonapkoè", "type": "Rural", "source": "OSM", "lon": 1.2009945, "lat": 6.1289955, "prefecture": "Lome Commune", "region": "Maritime" }, "geometry": { "type": "Point", "coordinates": [ 1.2009945, 6.1289955 ] } },
{ "type": "Feature", "properties": { "id": "osm_node_11359950830", "nom": "Marché de Nyekonakpoè", "type": "Rural", "source": "OSM", "lon": 1.200997, "lat": 6.128889, "prefecture": "Lome Commune", "region": "Maritime" }, "geometry": { "type": "Point", "coordinates": [ 1.200997, 6.128889 ] } },
{ "type": "Feature", "properties": { "id": "osm_node_11371080081", "nom": "Marché de Légbassito - Kové", "type": "Rural", "source": "OSM", "lon": 1.152969, "lat": 6.2555409, "prefecture": "Golfe", "region": "Maritime" }, "geometry": { "type": "Point", "coordinates": [ 1.152969, 6.2555409 ] } },
{ "type": "Feature", "properties": { "id": "osm_node_11449745089", "nom": "Supermarché", "type": "Rural", "source": "OSM", "lon": 1.1747373, "lat": 6.9471886, "prefecture": "Haho", "region": "Plateaux" }, "geometry": { "type": "Point", "coordinates": [ 1.1747373, 6.9471886 ] } },
{ "type": "Feature", "properties": { "id": "osm_node_11549722644", "nom": "Place du marché de Dévégo", "type": "Rural", "source": "OSM", "lon": 1.3386463, "lat": 6.1922736, "prefecture": "Lome Commune", "region": "Maritime" }, "geometry": { "type": "Point", "coordinates": [ 1.3386463, 6.1922736 ] } },
{ "type": "Feature", "properties": { "id": "osm_node_11680194933", "nom": "Marché d'agomé glozou", "type": "Rural", "source": "OSM", "lon": 1.6648947, "lat": 6.5550547, "prefecture": "Bas-Mono", "region": "Maritime" }, "geometry": { "type": "Point", "coordinates": [ 1.6648947, 6.5550547 ] } },
{ "type": "Feature", "properties": { "id": "osm_node_11725449212", "nom": "Marché", "type": "Rural", "source": "OSM", "lon": 1.0737761, "lat": 6.7528519, "prefecture": "Zio", "region": "Maritime" }, "geometry": { "type": "Point", "coordinates": [ 1.0737761, 6.7528519 ] } },
{ "type": "Feature", "properties": { "id": "osm_node_11732319577", "nom": "Marché", "type": "Rural", "source": "OSM", "lon": 1.3145532, "lat": 6.7385543, "prefecture": "Yoto", "region": "Maritime" }, "geometry": { "type": "Point", "coordinates": [ 1.3145532, 6.7385543 ] } },
{ "type": "Feature", "properties": { "id": "osm_node_11732320529", "nom": "Marché", "type": "Rural", "source": "OSM", "lon": 1.4774414, "lat": 6.7099175, "prefecture": "Yoto", "region": "Maritime" }, "geometry": { "type": "Point", "coordinates": [ 1.4774414, 6.7099175 ] } },
{ "type": "Feature", "properties": { "id": "osm_node_11752460665", "nom": "Marché", "type": "Rural", "source": "OSM", "lon": 1.0729874, "lat": 6.7533758, "prefecture": "Zio", "region": "Maritime" }, "geometry": { "type": "Point", "coordinates": [ 1.0729874, 6.7533758 ] } },
{ "type": "Feature", "properties": { "id": "osm_node_11772422276", "nom": "Marché Brounfou", "type": "Rural", "source": "OSM", "lon": 0.6760721, "lat": 7.7359943, "prefecture": "Akébou", "region": "Plateaux" }, "geometry": { "type": "Point", "coordinates": [ 0.6760721, 7.7359943 ] } },
{ "type": "Feature", "properties": { "id": "osm_node_11772432179", "nom": "Marché de Kougnohou", "type": "Rural", "source": "OSM", "lon": 0.7871249, "lat": 7.6557473, "prefecture": "Akébou", "region": "Plateaux" }, "geometry": { "type": "Point", "coordinates": [ 0.7871249, 7.6557473 ] } },
{ "type": "Feature", "properties": { "id": "osm_node_11772434292", "nom": "Marché de SEREGBENE", "type": "Rural", "source": "OSM", "lon": 0.7415731, "lat": 7.8703708, "prefecture": "Akébou", "region": "Plateaux" }, "geometry": { "type": "Point", "coordinates": [ 0.7415731, 7.8703708 ] } },
{ "type": "Feature", "properties": { "id": "osm_node_11879231275", "nom": "Marché Akodesséwa Hahotoé", "type": "Rural", "source": "OSM", "lon": 1.3829795, "lat": 6.3303057, "prefecture": "Zio", "region": "Maritime" }, "geometry": { "type": "Point", "coordinates": [ 1.3829795, 6.3303057 ] } },
{ "type": "Feature", "properties": { "id": "osm_node_11905597034", "nom": "Marché", "type": "Rural", "source": "OSM", "lon": 1.5867323, "lat": 6.4162782, "prefecture": "Vo", "region": "Maritime" }, "geometry": { "type": "Point", "coordinates": [ 1.5867323, 6.4162782 ] } },
{ "type": "Feature", "properties": { "id": "osm_node_11905597944", "nom": "Marché", "type": "Rural", "source": "OSM", "lon": 1.3419595, "lat": 6.3318312, "prefecture": "Zio", "region": "Maritime" }, "geometry": { "type": "Point", "coordinates": [ 1.3419595, 6.3318312 ] } },
{ "type": "Feature", "properties": { "id": "osm_node_11941885739", "nom": "Marché de YAKA", "type": "Rural", "source": "OSM", "lon": 0.9525379, "lat": 9.6506715, "prefecture": "Doufelgou", "region": "Kara" }, "geometry": { "type": "Point", "coordinates": [ 0.9525379, 9.6506715 ] } },
{ "type": "Feature", "properties": { "id": "osm_node_12010342352", "nom": "Marché de Assoukoko", "type": "Rural", "source": "OSM", "lon": 0.6596518, "lat": 8.0044013, "prefecture": "Blitta", "region": "Centrale" }, "geometry": { "type": "Point", "coordinates": [ 0.6596518, 8.0044013 ] } },
{ "type": "Feature", "properties": { "id": "osm_node_12046225309", "nom": "Marché", "type": "Rural", "source": "OSM", "lon": 0.7489336, "lat": 10.34725, "prefecture": "Oti", "region": "Savanes" }, "geometry": { "type": "Point", "coordinates": [ 0.7489336, 10.34725 ] } },
{ "type": "Feature", "properties": { "id": "osm_node_12050832973", "nom": "Marché Dimori", "type": "Rural", "source": "OSM", "lon": 0.596325, "lat": 9.202406, "prefecture": "Bassar", "region": "Kara" }, "geometry": { "type": "Point", "coordinates": [ 0.596325, 9.202406 ] } },
{ "type": "Feature", "properties": { "id": "osm_node_12084962863", "nom": "marché", "type": "Rural", "source": "OSM", "lon": 1.296663, "lat": 9.4897865, "prefecture": "Kozah", "region": "Kara" }, "geometry": { "type": "Point", "coordinates": [ 1.296663, 9.4897865 ] } },
{ "type": "Feature", "properties": { "id": "osm_node_12089509817", "nom": "Marché de Koussogba", "type": "Rural", "source": "OSM", "lon": 1.047966, "lat": 7.1955361, "prefecture": "Ogou", "region": "Plateaux" }, "geometry": { "type": "Point", "coordinates": [ 1.047966, 7.1955361 ] } },
{ "type": "Feature", "properties": { "id": "osm_node_12089516262", "nom": "Marché", "type": "Rural", "source": "OSM", "lon": 0.9607051, "lat": 7.2072912, "prefecture": "Kpélé", "region": "Plateaux" }, "geometry": { "type": "Point", "coordinates": [ 0.9607051, 7.2072912 ] } },
{ "type": "Feature", "properties": { "id": "osm_node_12089518938", "nom": "Marché de Moritan", "type": "Rural", "source": "OSM", "lon": 1.350685, "lat": 8.1087033, "prefecture": "Est-Mono", "region": "Plateaux" }, "geometry": { "type": "Point", "coordinates": [ 1.350685, 8.1087033 ] } },
{ "type": "Feature", "properties": { "id": "osm_node_12089523126", "nom": "Marché", "type": "Rural", "source": "OSM", "lon": 0.9424927, "lat": 6.9088986, "prefecture": "Haho", "region": "Plateaux" }, "geometry": { "type": "Point", "coordinates": [ 0.9424927, 6.9088986 ] } },
{ "type": "Feature", "properties": { "id": "osm_node_12089540878", "nom": "Marché", "type": "Rural", "source": "OSM", "lon": 0.8555898, "lat": 7.9241362, "prefecture": "Akébou", "region": "Plateaux" }, "geometry": { "type": "Point", "coordinates": [ 0.8555898, 7.9241362 ] } },
{ "type": "Feature", "properties": { "id": "osm_node_12089547845", "nom": "Marché de Badin copé 2", "type": "Rural", "source": "OSM", "lon": 1.5303452, "lat": 8.1477889, "prefecture": "Est-Mono", "region": "Plateaux" }, "geometry": { "type": "Point", "coordinates": [ 1.5303452, 8.1477889 ] } },
{ "type": "Feature", "properties": { "id": "osm_node_12091024163", "nom": "Marché de Kpélé", "type": "Rural", "source": "OSM", "lon": 1.1854573, "lat": 6.8589429, "prefecture": "Haho", "region": "Plateaux" }, "geometry": { "type": "Point", "coordinates": [ 1.1854573, 6.8589429 ] } },
{ "type": "Feature", "properties": { "id": "osm_node_12101147238", "nom": "Marché Issati", "type": "Rural", "source": "OSM", "lon": 1.3627511, "lat": 8.3648279, "prefecture": "Est-Mono", "region": "Plateaux" }, "geometry": { "type": "Point", "coordinates": [ 1.3627511, 8.3648279 ] } },
{ "type": "Feature", "properties": { "id": "osm_node_12114096487", "nom": "Marché de Zogbégan", "type": "Rural", "source": "OSM", "lon": 0.6757802, "lat": 7.5760169, "prefecture": "Wawa", "region": "Plateaux" }, "geometry": { "type": "Point", "coordinates": [ 0.6757802, 7.5760169 ] } },
{ "type": "Feature", "properties": { "id": "osm_node_12121181506", "nom": "Marché Yanda", "type": "Rural", "source": "OSM", "lon": 1.5938799, "lat": 8.3293226, "prefecture": "Est-Mono", "region": "Plateaux" }, "geometry": { "type": "Point", "coordinates": [ 1.5938799, 8.3293226 ] } },
{ "type": "Feature", "properties": { "id": "osm_node_12199752427", "nom": "Marché", "type": "Rural", "source": "OSM", "lon": 0.7117208, "lat": 7.4631214, "prefecture": "Wawa", "region": "Plateaux" }, "geometry": { "type": "Point", "coordinates": [ 0.7117208, 7.4631214 ] } },
{ "type": "Feature", "properties": { "id": "osm_node_12199938102", "nom": "Marché", "type": "Rural", "source": "OSM", "lon": 0.6752986, "lat": 7.4418149, "prefecture": "Wawa", "region": "Plateaux" }, "geometry": { "type": "Point", "coordinates": [ 0.6752986, 7.4418149 ] } },
{ "type": "Feature", "properties": { "id": "osm_node_12199938402", "nom": "Marché", "type": "Rural", "source": "OSM", "lon": 0.6055467, "lat": 7.5731504, "prefecture": "Wawa", "region": "Plateaux" }, "geometry": { "type": "Point", "coordinates": [ 0.6055467, 7.5731504 ] } },
{ "type": "Feature", "properties": { "id": "osm_node_12212051492", "nom": "Marché", "type": "Rural", "source": "OSM", "lon": 1.4089191, "lat": 7.0016951, "prefecture": "Haho", "region": "Plateaux" }, "geometry": { "type": "Point", "coordinates": [ 1.4089191, 7.0016951 ] } },
{ "type": "Feature", "properties": { "id": "osm_node_12399665351", "nom": "Ancien marché", "type": "Rural", "source": "OSM", "lon": 0.8679065, "lat": 7.3875617, "prefecture": "Amou", "region": "Plateaux" }, "geometry": { "type": "Point", "coordinates": [ 0.8679065, 7.3875617 ] } },
{ "type": "Feature", "properties": { "id": "osm_node_12429572562", "nom": "Marché", "type": "Rural", "source": "OSM", "lon": 1.3240752, "lat": 9.1213442, "prefecture": "Tchaoudjo", "region": "Centrale" }, "geometry": { "type": "Point", "coordinates": [ 1.3240752, 9.1213442 ] } },
{ "type": "Feature", "properties": { "id": "osm_node_12429667969", "nom": "Nouveau marché", "type": "Rural", "source": "OSM", "lon": 0.8096744, "lat": 8.2021672, "prefecture": "Blitta", "region": "Centrale" }, "geometry": { "type": "Point", "coordinates": [ 0.8096744, 8.2021672 ] } },
{ "type": "Feature", "properties": { "id": "osm_node_12429770361", "nom": "Marché", "type": "Rural", "source": "OSM", "lon": 1.1443033, "lat": 9.1123916, "prefecture": "Tchaoudjo", "region": "Centrale" }, "geometry": { "type": "Point", "coordinates": [ 1.1443033, 9.1123916 ] } },
{ "type": "Feature", "properties": { "id": "osm_node_12429780324", "nom": "Marché", "type": "Rural", "source": "OSM", "lon": 0.9572107, "lat": 9.637368, "prefecture": "Kozah", "region": "Kara" }, "geometry": { "type": "Point", "coordinates": [ 0.9572107, 9.637368 ] } },
{ "type": "Feature", "properties": { "id": "osm_node_12429780451", "nom": "Marché", "type": "Rural", "source": "OSM", "lon": 1.2449515, "lat": 9.7963218, "prefecture": "Binah", "region": "Kara" }, "geometry": { "type": "Point", "coordinates": [ 1.2449515, 9.7963218 ] } },
{ "type": "Feature", "properties": { "id": "osm_node_12429853750", "nom": "Marché", "type": "Rural", "source": "OSM", "lon": 1.0053865, "lat": 9.6282334, "prefecture": "Kozah", "region": "Kara" }, "geometry": { "type": "Point", "coordinates": [ 1.0053865, 9.6282334 ] } },
{ "type": "Feature", "properties": { "id": "osm_node_12484064994", "nom": "Marché", "type": "Rural", "source": "OSM", "lon": 1.5570416, "lat": 6.4724988, "prefecture": "Vo", "region": "Maritime" }, "geometry": { "type": "Point", "coordinates": [ 1.5570416, 6.4724988 ] } },
{ "type": "Feature", "properties": { "id": "osm_node_12484102919", "nom": "Marché de Dagbati", "type": "Rural", "source": "OSM", "lon": 1.4980672, "lat": 6.4827264, "prefecture": "Vo", "region": "Maritime" }, "geometry": { "type": "Point", "coordinates": [ 1.4980672, 6.4827264 ] } },
{ "type": "Feature", "properties": { "id": "osm_node_12568454745", "nom": "Marché de Élavagnon", "type": "Rural", "source": "OSM", "lon": 1.2858818, "lat": 7.9516822, "prefecture": "Est-Mono", "region": "Plateaux" }, "geometry": { "type": "Point", "coordinates": [ 1.2858818, 7.9516822 ] } },
{ "type": "Feature", "properties": { "id": "osm_node_12728221267", "nom": "Marché de Farendè", "type": "Rural", "source": "OSM", "lon": 1.2432602, "lat": 9.7307963, "prefecture": "Kozah", "region": "Kara" }, "geometry": { "type": "Point", "coordinates": [ 1.2432602, 9.7307963 ] } },
{ "type": "Feature", "properties": { "id": "osm_node_12736276908", "nom": "Marché de Kaza", "type": "Rural", "source": "OSM", "lon": 1.1515409, "lat": 8.4261185, "prefecture": "Sotouboua", "region": "Centrale" }, "geometry": { "type": "Point", "coordinates": [ 1.1515409, 8.4261185 ] } },
{ "type": "Feature", "properties": { "id": "osm_node_12736307501", "nom": "Marché de Noèpé", "type": "Rural", "source": "OSM", "lon": 1.036286, "lat": 6.2616479, "prefecture": "Ave", "region": "Maritime" }, "geometry": { "type": "Point", "coordinates": [ 1.036286, 6.2616479 ] } },
{ "type": "Feature", "properties": { "id": "osm_node_12741301281", "nom": "Marché d'Awandjélo", "type": "Rural", "source": "OSM", "lon": 1.2101054, "lat": 9.4489719, "prefecture": "Kozah", "region": "Kara" }, "geometry": { "type": "Point", "coordinates": [ 1.2101054, 9.4489719 ] } },
{ "type": "Feature", "properties": { "id": "osm_node_12743543911", "nom": "Marché d'Atchangbadè", "type": "Rural", "source": "OSM", "lon": 1.1329865, "lat": 9.479953, "prefecture": "Kozah", "region": "Kara" }, "geometry": { "type": "Point", "coordinates": [ 1.1329865, 9.479953 ] } },
{ "type": "Feature", "properties": { "id": "osm_node_12793541563", "nom": "Marché de Bangeli", "type": "Rural", "source": "OSM", "lon": 0.6233561, "lat": 9.4219782, "prefecture": "Bassar", "region": "Kara" }, "geometry": { "type": "Point", "coordinates": [ 0.6233561, 9.4219782 ] } },
{ "type": "Feature", "properties": { "id": "osm_node_12804829343", "nom": "Marché de Mango", "type": "Rural", "source": "OSM", "lon": 0.4757139, "lat": 10.3566052, "prefecture": "Oti", "region": "Savanes" }, "geometry": { "type": "Point", "coordinates": [ 0.4757139, 10.3566052 ] } },
{ "type": "Feature", "properties": { "id": "osm_node_12847872226", "nom": "Marché De Hanoukopé (le Togo)", "type": "Rural", "source": "OSM", "lon": 1.2183934, "lat": 6.1410668, "prefecture": "Lome Commune", "region": "Maritime" }, "geometry": { "type": "Point", "coordinates": [ 1.2183934, 6.1410668 ] } },
{ "type": "Feature", "properties": { "id": "osm_node_12858235896", "nom": "Market CHU", "type": "Rural", "source": "OSM", "lon": 1.2140867, "lat": 6.1792568, "prefecture": "Lome Commune", "region": "Maritime" }, "geometry": { "type": "Point", "coordinates": [ 1.2140867, 6.1792568 ] } },
{ "type": "Feature", "properties": { "id": "osm_node_13130889155", "nom": "Marché", "type": "Rural", "source": "OSM", "lon": 1.1138973, "lat": 9.3999387, "prefecture": "Assoli", "region": "Kara" }, "geometry": { "type": "Point", "coordinates": [ 1.1138973, 9.3999387 ] } },
{ "type": "Feature", "properties": { "id": "osm_node_13395460872", "nom": "Petit Marché", "type": "Rural", "source": "OSM", "lon": 1.1612295, "lat": 9.5382485, "prefecture": "Kozah", "region": "Kara" }, "geometry": { "type": "Point", "coordinates": [ 1.1612295, 9.5382485 ] } },
{ "type": "Feature", "properties": { "id": "osm_node_13408715089", "nom": "Petit Marché de Houloun", "type": "Rural", "source": "OSM", "lon": 1.2395883, "lat": 9.6828693, "prefecture": "Kozah", "region": "Kara" }, "geometry": { "type": "Point", "coordinates": [ 1.2395883, 9.6828693 ] } },
{ "type": "Feature", "properties": { "id": "osm_node_13411719288", "nom": "Ataloté", "type": "Rural", "source": "OSM", "lon": 0.9442663, "lat": 9.9438168, "prefecture": "Keran", "region": "Kara" }, "geometry": { "type": "Point", "coordinates": [ 0.9442663, 9.9438168 ] } },
{ "type": "Feature", "properties": { "id": "osm_node_13411719418", "nom": "Marché", "type": "Rural", "source": "OSM", "lon": 1.046716, "lat": 9.9464825, "prefecture": "Keran", "region": "Kara" }, "geometry": { "type": "Point", "coordinates": [ 1.046716, 9.9464825 ] } },
{ "type": "Feature", "properties": { "id": "osm_node_13412909397", "nom": "Marché", "type": "Rural", "source": "OSM", "lon": 0.9398031, "lat": 9.4822626, "prefecture": "Bassar", "region": "Kara" }, "geometry": { "type": "Point", "coordinates": [ 0.9398031, 9.4822626 ] } },
{ "type": "Feature", "properties": { "id": "osm_node_13526557147", "nom": "Koudjouaré", "type": "Rural", "source": "OSM", "lon": 0.6440413, "lat": 10.941729, "prefecture": "Kpendjal", "region": "Savanes" }, "geometry": { "type": "Point", "coordinates": [ 0.6440413, 10.941729 ] } },
{ "type": "Feature", "properties": { "id": "osm_node_13606837482", "nom": "Nouveau marché", "type": "Rural", "source": "OSM", "lon": 1.3303542, "lat": 9.7508052, "prefecture": "Binah", "region": "Kara" }, "geometry": { "type": "Point", "coordinates": [ 1.3303542, 9.7508052 ] } },
{ "type": "Feature", "properties": { "id": "osm_node_13665638884", "nom": "Marché de Baga", "type": "Rural", "source": "OSM", "lon": 1.1023919, "lat": 9.7899156, "prefecture": "Doufelgou", "region": "Kara" }, "geometry": { "type": "Point", "coordinates": [ 1.1023919, 9.7899156 ] } },
{ "type": "Feature", "properties": { "id": "osm_node_13820901456", "nom": "Marché de Tabligbo", "type": "Rural", "source": "OSM", "lon": 1.5031248, "lat": 6.5869934, "prefecture": "Yoto", "region": "Maritime" }, "geometry": { "type": "Point", "coordinates": [ 1.5031248, 6.5869934 ] } },
{ "type": "Feature", "properties": { "id": "osm_node_2439100025", "nom": "Marché", "type": "Rural", "source": "OSM", "lon": 1.1463385, "lat": 6.1974836, "prefecture": "Golfe", "region": "Maritime" }, "geometry": { "type": "Point", "coordinates": [ 1.1463385, 6.1974836 ] } },
{ "type": "Feature", "properties": { "id": "osm_node_2439100031", "nom": "Marché", "type": "Rural", "source": "OSM", "lon": 1.1464861, "lat": 6.1983643, "prefecture": "Golfe", "region": "Maritime" }, "geometry": { "type": "Point", "coordinates": [ 1.1464861, 6.1983643 ] } },
{ "type": "Feature", "properties": { "id": "osm_node_2439100035", "nom": "Marché", "type": "Rural", "source": "OSM", "lon": 1.1463073, "lat": 6.1987253, "prefecture": "Golfe", "region": "Maritime" }, "geometry": { "type": "Point", "coordinates": [ 1.1463073, 6.1987253 ] } },
{ "type": "Feature", "properties": { "id": "osm_node_2439100040", "nom": "Marché", "type": "Rural", "source": "OSM", "lon": 1.1465493, "lat": 6.1990012, "prefecture": "Golfe", "region": "Maritime" }, "geometry": { "type": "Point", "coordinates": [ 1.1465493, 6.1990012 ] } },
{ "type": "Feature", "properties": { "id": "osm_node_2439100012", "nom": "Marché", "type": "Rural", "source": "OSM", "lon": 1.147429, "lat": 6.1965093, "prefecture": "Golfe", "region": "Maritime" }, "geometry": { "type": "Point", "coordinates": [ 1.147429, 6.1965093 ] } },
{ "type": "Feature", "properties": { "id": "osm_node_2439100017", "nom": "Marché", "type": "Rural", "source": "OSM", "lon": 1.1478745, "lat": 6.1965367, "prefecture": "Golfe", "region": "Maritime" }, "geometry": { "type": "Point", "coordinates": [ 1.1478745, 6.1965367 ] } },
{ "type": "Feature", "properties": { "id": "osm_node_2439100020", "nom": "Marché", "type": "Rural", "source": "OSM", "lon": 1.147126, "lat": 6.1968139, "prefecture": "Golfe", "region": "Maritime" }, "geometry": { "type": "Point", "coordinates": [ 1.147126, 6.1968139 ] } },
{ "type": "Feature", "properties": { "id": "osm_node_2439100022", "nom": "Marché", "type": "Rural", "source": "OSM", "lon": 1.1471163, "lat": 6.1968765, "prefecture": "Golfe", "region": "Maritime" }, "geometry": { "type": "Point", "coordinates": [ 1.1471163, 6.1968765 ] } },
{ "type": "Feature", "properties": { "id": "osm_node_2439100037", "nom": "Marché", "type": "Rural", "source": "OSM", "lon": 1.1477399, "lat": 6.1988921, "prefecture": "Golfe", "region": "Maritime" }, "geometry": { "type": "Point", "coordinates": [ 1.1477399, 6.1988921 ] } },
{ "type": "Feature", "properties": { "id": "osm_node_4312459447", "nom": "Marché", "type": "Rural", "source": "OSM", "lon": 1.2206981, "lat": 6.1266291, "prefecture": "Lome Commune", "region": "Maritime" }, "geometry": { "type": "Point", "coordinates": [ 1.2206981, 6.1266291 ] } },
{ "type": "Feature", "properties": { "id": "osm_node_7137229371", "nom": "Marché", "type": "Rural", "source": "OSM", "lon": 1.2221048, "lat": 6.1262147, "prefecture": "Lome Commune", "region": "Maritime" }, "geometry": { "type": "Point", "coordinates": [ 1.2221048, 6.1262147 ] } },
{ "type": "Feature", "properties": { "id": "osm_node_7137229372", "nom": "Marché", "type": "Rural", "source": "OSM", "lon": 1.2221784, "lat": 6.1258795, "prefecture": "Lome Commune", "region": "Maritime" }, "geometry": { "type": "Point", "coordinates": [ 1.2221784, 6.1258795 ] } },
{ "type": "Feature", "properties": { "id": "osm_node_7137229373", "nom": "Marché", "type": "Rural", "source": "OSM", "lon": 1.2214632, "lat": 6.1244349, "prefecture": "Lome Commune", "region": "Maritime" }, "geometry": { "type": "Point", "coordinates": [ 1.2214632, 6.1244349 ] } },
{ "type": "Feature", "properties": { "id": "osm_node_7137229374", "nom": "Marché", "type": "Rural", "source": "OSM", "lon": 1.2215692, "lat": 6.1244043, "prefecture": "Lome Commune", "region": "Maritime" }, "geometry": { "type": "Point", "coordinates": [ 1.2215692, 6.1244043 ] } },
{ "type": "Feature", "properties": { "id": "osm_node_7137229375", "nom": "Marché", "type": "Rural", "source": "OSM", "lon": 1.2223792, "lat": 6.124663, "prefecture": "Lome Commune", "region": "Maritime" }, "geometry": { "type": "Point", "coordinates": [ 1.2223792, 6.124663 ] } },
{ "type": "Feature", "properties": { "id": "osm_node_7366903015", "nom": "Marché", "type": "Rural", "source": "OSM", "lon": 1.221887, "lat": 6.1269932, "prefecture": "Lome Commune", "region": "Maritime" }, "geometry": { "type": "Point", "coordinates": [ 1.221887, 6.1269932 ] } },
{ "type": "Feature", "properties": { "id": "osm_node_2387531827", "nom": "Marché", "type": "Rural", "source": "OSM", "lon": 1.2306541, "lat": 6.1281271, "prefecture": "Lome Commune", "region": "Maritime" }, "geometry": { "type": "Point", "coordinates": [ 1.2306541, 6.1281271 ] } },
{ "type": "Feature", "properties": { "id": "osm_node_2387531828", "nom": "Marché", "type": "Rural", "source": "OSM", "lon": 1.2304265, "lat": 6.1288447, "prefecture": "Lome Commune", "region": "Maritime" }, "geometry": { "type": "Point", "coordinates": [ 1.2304265, 6.1288447 ] } },
{ "type": "Feature", "properties": { "id": "osm_node_2387531829", "nom": "Marché", "type": "Rural", "source": "OSM", "lon": 1.2315695, "lat": 6.1289006, "prefecture": "Lome Commune", "region": "Maritime" }, "geometry": { "type": "Point", "coordinates": [ 1.2315695, 6.1289006 ] } },
{ "type": "Feature", "properties": { "id": "osm_node_2387531830", "nom": "Marché", "type": "Rural", "source": "OSM", "lon": 1.231476, "lat": 6.129471, "prefecture": "Lome Commune", "region": "Maritime" }, "geometry": { "type": "Point", "coordinates": [ 1.231476, 6.129471 ] } },
{ "type": "Feature", "properties": { "id": "osm_node_2387531831", "nom": "Marché", "type": "Rural", "source": "OSM", "lon": 1.2311419, "lat": 6.1297504, "prefecture": "Lome Commune", "region": "Maritime" }, "geometry": { "type": "Point", "coordinates": [ 1.2311419, 6.1297504 ] } },
{ "type": "Feature", "properties": { "id": "osm_node_2387686219", "nom": "Marché", "type": "Rural", "source": "OSM", "lon": 1.2305334, "lat": 6.1285076, "prefecture": "Lome Commune", "region": "Maritime" }, "geometry": { "type": "Point", "coordinates": [ 1.2305334, 6.1285076 ] } },
{ "type": "Feature", "properties": { "id": "osm_node_2387686235", "nom": "Marché", "type": "Rural", "source": "OSM", "lon": 1.2311602, "lat": 6.1285678, "prefecture": "Lome Commune", "region": "Maritime" }, "geometry": { "type": "Point", "coordinates": [ 1.2311602, 6.1285678 ] } },
{ "type": "Feature", "properties": { "id": "osm_node_2387686351", "nom": "Marché", "type": "Rural", "source": "OSM", "lon": 1.2308451, "lat": 6.129335, "prefecture": "Lome Commune", "region": "Maritime" }, "geometry": { "type": "Point", "coordinates": [ 1.2308451, 6.129335 ] } },
{ "type": "Feature", "properties": { "id": "osm_node_2387697832", "nom": "Marché", "type": "Rural", "source": "OSM", "lon": 1.2305976, "lat": 6.128305, "prefecture": "Lome Commune", "region": "Maritime" }, "geometry": { "type": "Point", "coordinates": [ 1.2305976, 6.128305 ] } },
{ "type": "Feature", "properties": { "id": "osm_node_2387697868", "nom": "Marché", "type": "Rural", "source": "OSM", "lon": 1.2314977, "lat": 6.1293397, "prefecture": "Lome Commune", "region": "Maritime" }, "geometry": { "type": "Point", "coordinates": [ 1.2314977, 6.1293397 ] } },
{ "type": "Feature", "properties": { "id": "osm_node_4109635442", "nom": "Marché", "type": "Rural", "source": "OSM", "lon": 1.2440063, "lat": 6.1421985, "prefecture": "Lome Commune", "region": "Maritime" }, "geometry": { "type": "Point", "coordinates": [ 1.2440063, 6.1421985 ] } },
{ "type": "Feature", "properties": { "id": "osm_node_4109636479", "nom": "Marché", "type": "Rural", "source": "OSM", "lon": 1.2445646, "lat": 6.1425876, "prefecture": "Lome Commune", "region": "Maritime" }, "geometry": { "type": "Point", "coordinates": [ 1.2445646, 6.1425876 ] } },
{ "type": "Feature", "properties": { "id": "osm_node_9340127873", "nom": "Marché", "type": "Rural", "source": "OSM", "lon": 1.2434014, "lat": 6.1429928, "prefecture": "Lome Commune", "region": "Maritime" }, "geometry": { "type": "Point", "coordinates": [ 1.2434014, 6.1429928 ] } },