{
  "version": 0.6,
  "generator": "Overpass API 0.7.62.11 87bfad18",
  "osm3s": {
    "timestamp_osm_base": "2026-06-17T03:07:15Z",
    "timestamp_areas_base": "2026-06-16T17:52:02Z",
    "copyright": "The data included in this document is from www.openstreetmap.org. The data is made available under ODbL."
  },
  "elements": [
    {
      "type": "node",
      "id": 1292969599,
      "lat": 9.5473539,
      "lon": 1.2111966,
      "tags": {
        "amenity": "marketplace",
        "name": "Marché Tchintchinda"
      }
    },
    {
      "type": "node",
      "id": 1292970741,
      "lat": 9.5580402,
      "lon": 1.2116668,
      "tags": {
        "amenity": "marketplace",
        "name": "Place de l'ancien marché de Sarakawa"
      }
    },
    {
      "type": "node",
      "id": 1292980431,
      "lat": 9.5441983,
      "lon": 1.1729941,
      "tags": {
        "amenity": "marketplace",
        "name": "marche de wakada"
      }
    },
    {
      "type": "node",
      "id": 1879842665,
      "lat": 6.1273769,
      "lon": 1.2334876,
      "tags": {
        "amenity": "marketplace",
        "name": "Grand Marché"
      }
    },
    {
      "type": "node",
      "id": 2203980181,
      "lat": 10.1370234,
      "lon": 1.0796517,
      "tags": {
        "amenity": "marketplace",
        "name": "Marché de Nadoba"
      }
    },
    {
      "type": "node",
      "id": 2460698293,
      "lat": 6.2282176,
      "lon": 1.5934946,
      "tags": {
        "amenity": "marketplace",
        "source": "SURVEY"
      }
    },
    {
      "type": "node",
      "id": 2494771839,
      "lat": 10.9772833,
      "lon": 0.2247876,
      "tags": {
        "amenity": "marketplace",
        "name": "Carrefour"
      }
    },
    {
      "type": "node",
      "id": 2730903125,
      "lat": 6.1596337,
      "lon": 1.2362292,
      "tags": {
        "amenity": "marketplace",
        "name": "Marché de Noukafu",
        "source": "Note by Otis Messio"
      }
    },
    {
      "type": "node",
      "id": 2999860539,
      "lat": 6.2361618,
      "lon": 1.6078959,
      "tags": {
        "amenity": "marketplace",
        "name": "Marche Municipale Ablodessime"
      }
    },
    {
      "type": "node",
      "id": 3101142730,
      "lat": 6.1161997,
      "lon": 1.2039083,
      "tags": {
        "amenity": "marketplace",
        "name": "Marché de Tomates",
        "source": "survey"
      }
    },
    {
      "type": "node",
      "id": 3161426132,
      "lat": 6.1534682,
      "lon": 1.2680023,
      "tags": {
        "amenity": "marketplace",
        "name": "Marché d'Akodésséwa",
        "source": "Bing"
      }
    },
    {
      "type": "node",
      "id": 3161471078,
      "lat": 6.2544491,
      "lon": 1.2079169,
      "tags": {
        "amenity": "marketplace",
        "name": "Marché d'Agoè Zongo"
      }
    },
    {
      "type": "node",
      "id": 3161505910,
      "lat": 6.1412713,
      "lon": 1.229964,
      "tags": {
        "amenity": "marketplace",
        "name": "Amoutivé",
        "source": "bing"
      }
    },
    {
      "type": "node",
      "id": 3174714660,
      "lat": 6.1590973,
      "lon": 1.2072448,
      "tags": {
        "amenity": "marketplace",
        "name": "Gbossimé",
        "source": "Bing"
      }
    },
    {
      "type": "node",
      "id": 3435848334,
      "lat": 6.2625893,
      "lon": 1.2847115,
      "tags": {
        "amenity": "marketplace",
        "name": "Marché Avéta"
      }
    },
    {
      "type": "node",
      "id": 3458599490,
      "lat": 6.1283172,
      "lon": 1.235192,
      "tags": {
        "amenity": "marketplace",
        "name": "Marché des fruits"
      }
    },
    {
      "type": "node",
      "id": 3486923922,
      "lat": 6.1632902,
      "lon": 1.2166008,
      "tags": {
        "amenity": "marketplace",
        "shop": "coffee"
      }
    },
    {
      "type": "node",
      "id": 3591026325,
      "lat": 8.5591223,
      "lon": 0.9844517,
      "tags": {
        "amenity": "marketplace",
        "name": "Marché de SOTOUBOUA",
        "wheelchair": "yes"
      }
    },
    {
      "type": "node",
      "id": 3603142010,
      "lat": 8.5616368,
      "lon": 0.9755457,
      "tags": {
        "amenity": "marketplace",
        "name": "Marché De Lundi"
      }
    },
    {
      "type": "node",
      "id": 3804724055,
      "lat": 8.9754196,
      "lon": 1.1425369,
      "tags": {
        "amenity": "marketplace",
        "name": "Marché de Komah",
        "opening_hours": "Mo,Th",
        "operator": "Commune Tchaoudjo I"
      }
    },
    {
      "type": "node",
      "id": 3832310128,
      "lat": 6.1600889,
      "lon": 1.2128802,
      "tags": {
        "amenity": "marketplace",
        "name": "Marché d'Adéwui"
      }
    },
    {
      "type": "node",
      "id": 3832434564,
      "lat": 9.8893917,
      "lon": 1.348485,
      "tags": {
        "amenity": "marketplace",
        "name": "MARCHE DE SOLLA VILLE"
      }
    },
    {
      "type": "node",
      "id": 3835146333,
      "lat": 7.1759423,
      "lon": 0.6979368,
      "tags": {
        "amenity": "marketplace",
        "name": "marché de Médévunui"
      }
    },
    {
      "type": "node",
      "id": 3835177163,
      "lat": 7.1755438,
      "lon": 0.6981202,
      "tags": {
        "amenity": "marketplace",
        "name": "marché de Médévunui"
      }
    },
    {
      "type": "node",
      "id": 3890979926,
      "lat": 10.9188312,
      "lon": 0.207224,
      "tags": {
        "amenity": "marketplace",
        "name": "Sosouo",
        "name:Moba": "Sou Sou"
      }
    },
    {
      "type": "node",
      "id": 3915323781,
      "lat": 6.4532035,
      "lon": 0.91483,
      "tags": {
        "amenity": "marketplace",
        "name": "Ancien Marché"
      }
    },
    {
      "type": "node",
      "id": 3915414026,
      "lat": 6.4584192,
      "lon": 0.9184635,
      "tags": {
        "amenity": "marketplace",
        "name": "Nuwozamedoo"
      }
    },
    {
      "type": "node",
      "id": 3915414027,
      "lat": 6.45427,
      "lon": 0.9131523,
      "tags": {
        "amenity": "marketplace"
      }
    },
    {
      "type": "node",
      "id": 3915444135,
      "lat": 6.4552924,
      "lon": 0.9141996,
      "tags": {
        "amenity": "marketplace"
      }
    },
    {
      "type": "node",
      "id": 3915444145,
      "lat": 6.4591928,
      "lon": 0.9171291,
      "tags": {
        "amenity": "marketplace"
      }
    },
    {
      "type": "node",
      "id": 3915536339,
      "lat": 6.4492198,
      "lon": 0.9147267,
      "tags": {
        "amenity": "marketplace"
      }
    },
    {
      "type": "node",
      "id": 3915950398,
      "lat": 6.4615554,
      "lon": 0.9141149,
      "tags": {
        "amenity": "marketplace"
      }
    },
    {
      "type": "node",
      "id": 4007144984,
      "lat": 6.2680613,
      "lon": 1.150657,
      "tags": {
        "amenity": "marketplace",
        "name": "Marché de Légbassito"
      }
    },
    {
      "type": "node",
      "id": 4008404885,
      "lat": 6.1837779,
      "lon": 1.1691348,
      "tags": {
        "amenity": "marketplace",
        "name": "Bokovi-simé",
        "organic": "yes"
      }
    },
    {
      "type": "node",
      "id": 4088778953,
      "lat": 6.3326272,
      "lon": 1.5268267,
      "tags": {
        "amenity": "marketplace",
        "name": "Adrigogbonou"
      }
    },
    {
      "type": "node",
      "id": 4088806697,
      "lat": 6.3384502,
      "lon": 1.5242286,
      "tags": {
        "amenity": "marketplace",
        "fixme": "draw buildings (unfinished)",
        "name": "Grand Marché de Vogan (Gbeke)"
      }
    },
    {
      "type": "node",
      "id": 4088806725,
      "lat": 6.332591,
      "lon": 1.5267654,
      "tags": {
        "amenity": "marketplace"
      }
    },
    {
      "type": "node",
      "id": 4130834099,
      "lat": 6.1941961,
      "lon": 1.2026297,
      "tags": {
        "amenity": "marketplace",
        "name": "Marché d'Agbalépédogan"
      }
    },
    {
      "type": "node",
      "id": 4139079892,
      "lat": 6.1410686,
      "lon": 1.2533592,
      "tags": {
        "amenity": "marketplace",
        "name": "Marché d'Ahligo"
      }
    },
    {
      "type": "node",
      "id": 4215522294,
      "lat": 8.9873335,
      "lon": 1.1419697,
      "tags": {
        "amenity": "marketplace",
        "name": "Petit Marché"
      }
    },
    {
      "type": "node",
      "id": 4221442017,
      "lat": 8.9543463,
      "lon": 1.1704178,
      "tags": {
        "amenity": "marketplace",
        "name": "MARCHE DE KADAMBARA"
      }
    },
    {
      "type": "node",
      "id": 4222327100,
      "lat": 9.0293878,
      "lon": 1.1035731,
      "tags": {
        "amenity": "marketplace"
      }
    },
    {
      "type": "node",
      "id": 4336706217,
      "lat": 9.4549161,
      "lon": 0.8132938,
      "tags": {
        "amenity": "marketplace",
        "name": "Marché de Kabou"
      }
    },
    {
      "type": "node",
      "id": 4516053286,
      "lat": 7.2023254,
      "lon": 0.6942734,
      "tags": {
        "amenity": "marketplace"
      }
    },
    {
      "type": "node",
      "id": 4797954962,
      "lat": 6.1944603,
      "lon": 1.1878529,
      "tags": {
        "amenity": "marketplace",
        "name": "Marché de Totsi",
        "source": "bing"
      }
    },
    {
      "type": "node",
      "id": 4819836141,
      "lat": 9.01999,
      "lon": 1.4102571,
      "tags": {
        "amenity": "marketplace",
        "name": "Grand Marché De Tchamba",
        "source": "survey"
      }
    },
    {
      "type": "node",
      "id": 4905011415,
      "lat": 9.7014746,
      "lon": 0.6049937,
      "tags": {
        "amenity": "marketplace",
        "name": "Marché de Guérin-kouka",
        "operator": "Public",
        "organic": "no",
        "wheelchair": "yes"
      }
    },
    {
      "type": "node",
      "id": 4929129407,
      "lat": 8.5762775,
      "lon": 0.9847042,
      "tags": {
        "amenity": "marketplace",
        "date": "2012",
        "description": "Appatames en en t$oles et en pailles; Marché locale",
        "name": "Marché De Dimanche"
      }
    },
    {
      "type": "node",
      "id": 4929129408,
      "lat": 8.5635648,
      "lon": 0.9833136,
      "tags": {
        "amenity": "marketplace",
        "date": "2010",
        "description": "Appatames en tôles et en pailles; Marché locale",
        "name": "Marché De Mercredi"
      }
    },
    {
      "type": "node",
      "id": 4930532561,
      "lat": 8.5586513,
      "lon": 0.9953373,
      "tags": {
        "amenity": "marketplace",
        "date": "2014",
        "description": "Appatames en tôles et en pailles; Marché locale",
        "name": "Marché De Jeudi"
      }
    },
    {
      "type": "node",
      "id": 4930789832,
      "lat": 8.553031,
      "lon": 0.9844851,
      "tags": {
        "amenity": "marketplace",
        "date": "1999",
        "description": "Marché Local; Appatame en paille et toles",
        "name": "Marché De Mardi"
      }
    },
    {
      "type": "node",
      "id": 4936200129,
      "lat": 9.6571739,
      "lon": 1.3077137,
      "tags": {
        "amenity": "marketplace",
        "name": "Marché de Kétao",
        "source": "Bing;Survey"
      }
    },
    {
      "type": "node",
      "id": 5304186121,
      "lat": 6.1540541,
      "lon": 1.2693286,
      "tags": {
        "amenity": "marketplace",
        "name": "Marché de Gakpoto"
      }
    },
    {
      "type": "node",
      "id": 5343245164,
      "lat": 6.1460191,
      "lon": 1.2587446,
      "tags": {
        "amenity": "marketplace",
        "name": "Akoélévissimé"
      }
    },
    {
      "type": "node",
      "id": 5456886514,
      "lat": 6.1691399,
      "lon": 1.20772,
      "tags": {
        "amenity": "marketplace",
        "name": "Petit marché de boissons locales"
      }
    },
    {
      "type": "node",
      "id": 5677926880,
      "lat": 6.1681095,
      "lon": 1.3261026,
      "tags": {
        "amenity": "marketplace",
        "name": "Petit marché"
      }
    },
    {
      "type": "node",
      "id": 5758087835,
      "lat": 6.915902,
      "lon": 0.6391122,
      "tags": {
        "amenity": "marketplace",
        "name": "Marché Château"
      }
    },
    {
      "type": "node",
      "id": 5817323182,
      "lat": 6.4363192,
      "lon": 1.211535,
      "tags": {
        "amenity": "marketplace"
      }
    },
    {
      "type": "node",
      "id": 5817716197,
      "lat": 6.4296192,
      "lon": 1.2147268,
      "tags": {
        "amenity": "marketplace"
      }
    },
    {
      "type": "node",
      "id": 5981242850,
      "lat": 11.0359449,
      "lon": 0.1100574,
      "tags": {
        "amenity": "marketplace",
        "name": "Marché de Timbou"
      }
    },
    {
      "type": "node",
      "id": 5993882558,
      "lat": 10.936985,
      "lon": 0.2251583,
      "tags": {
        "amenity": "marketplace",
        "name": "Marché danpiomg"
      }
    },
    {
      "type": "node",
      "id": 5994325421,
      "lat": 6.8442106,
      "lon": 0.5942849,
      "tags": {
        "amenity": "marketplace",
        "name": "marhce de apkadape"
      }
    },
    {
      "type": "node",
      "id": 6166454362,
      "lat": 8.32402,
      "lon": 0.97657,
      "tags": {
        "amenity": "marketplace",
        "name": "Petit marché de blitta"
      }
    },
    {
      "type": "node",
      "id": 6214463934,
      "lat": 6.2716728,
      "lon": 1.2893884,
      "tags": {
        "amenity": "marketplace",
        "name": "Avétassimé"
      }
    },
    {
      "type": "node",
      "id": 6279442698,
      "lat": 7.9535601,
      "lon": 1.0497173,
      "tags": {
        "amenity": "marketplace",
        "name": "Marché d'Akaba"
      }
    },
    {
      "type": "node",
      "id": 6332097819,
      "lat": 6.2967113,
      "lon": 1.4286089,
      "tags": {
        "amenity": "marketplace",
        "name": "Marché de Sévagan",
        "source": "bing;survey"
      }
    },
    {
      "type": "node",
      "id": 6360150243,
      "lat": 8.1668843,
      "lon": 1.0422269,
      "tags": {
        "amenity": "marketplace"
      }
    },
    {
      "type": "node",
      "id": 6423678480,
      "lat": 9.5899273,
      "lon": 1.1969893,
      "tags": {
        "amenity": "marketplace",
        "name": "Petit marché"
      }
    },
    {
      "type": "node",
      "id": 6423680185,
      "lat": 9.5874555,
      "lon": 1.1876944,
      "tags": {
        "amenity": "marketplace",
        "description": "Petit marché traditionel",
        "name": "Petit marché"
      }
    },
    {
      "type": "node",
      "id": 6510551893,
      "lat": 9.5640608,
      "lon": 1.1938396,
      "tags": {
        "amenity": "marketplace",
        "name": "Marché de KARA"
      }
    },
    {
      "type": "node",
      "id": 7070529816,
      "lat": 8.9874509,
      "lon": 1.1426982,
      "tags": {
        "amenity": "marketplace",
        "name": "Marché de Betail"
      }
    },
    {
      "type": "node",
      "id": 7148322631,
      "lat": 7.37628,
      "lon": 0.8937033,
      "tags": {
        "amenity": "marketplace",
        "name": "Petit marché Kpalongo"
      }
    },
    {
      "type": "node",
      "id": 7282291607,
      "lat": 9.6652883,
      "lon": 1.2589867,
      "tags": {
        "amenity": "marketplace",
        "description": "s'anime le lundi et le jeudi",
        "name": "Marché de Landa"
      }
    },
    {
      "type": "node",
      "id": 7383593728,
      "lat": 6.4473146,
      "lon": 0.9098375,
      "tags": {
        "amenity": "marketplace",
        "name": "Nouveau marché d'Assanhoun",
        "source": "Survey"
      }
    },
    {
      "type": "node",
      "id": 7384064402,
      "lat": 6.6599854,
      "lon": 1.4066657,
      "tags": {
        "amenity": "marketplace"
      }
    },
    {
      "type": "node",
      "id": 7405047392,
      "lat": 8.2548593,
      "lon": 1.1187547,
      "tags": {
        "amenity": "marketplace",
        "name": "Marché de Tchaloudè"
      }
    },
    {
      "type": "node",
      "id": 7613174078,
      "lat": 9.7390046,
      "lon": 0.9192091,
      "tags": {
        "amenity": "marketplace",
        "name": "Marché de Broukou",
        "operator:type": "public",
        "organic": "yes",
        "source": "Maxar Standard",
        "source:date": "2022"
      }
    },
    {
      "type": "node",
      "id": 7733065171,
      "lat": 7.7651498,
      "lon": 1.1946189,
      "tags": {
        "amenity": "marketplace",
        "name": "Marché D'Anié"
      }
    },
    {
      "type": "node",
      "id": 7809893540,
      "lat": 6.1257839,
      "lon": 1.2307395,
      "tags": {
        "amenity": "marketplace",
        "name": "Espace de vente de chaussures"
      }
    },
    {
      "type": "node",
      "id": 7935150805,
      "lat": 9.8224723,
      "lon": 1.2010396,
      "tags": {
        "amenity": "marketplace",
        "name": "Marché de Siou",
        "operator:type": "public",
        "organic": "no"
      }
    },
    {
      "type": "node",
      "id": 8130691653,
      "lat": 10.6693975,
      "lon": 0.1967238,
      "tags": {
        "amenity": "marketplace",
        "name": "Marché de Kourier de Tandjouaré"
      }
    },
    {
      "type": "node",
      "id": 8130722072,
      "lat": 10.6702068,
      "lon": 0.2046936,
      "tags": {
        "amenity": "marketplace",
        "name": "Grand marché de Tandjouaré"
      }
    },
    {
      "type": "node",
      "id": 8130797794,
      "lat": 10.6087669,
      "lon": 0.2493138,
      "tags": {
        "amenity": "marketplace",
        "name": "Marché de Pont-Noir"
      }
    },
    {
      "type": "node",
      "id": 8147233171,
      "lat": 8.7842286,
      "lon": 0.5647684,
      "tags": {
        "amenity": "marketplace",
        "name": "Marché de Djarkpanga"
      }
    },
    {
      "type": "node",
      "id": 8150723922,
      "lat": 9.9700529,
      "lon": 0.5773134,
      "tags": {
        "amenity": "marketplace",
        "name": "Takpamba"
      }
    },
    {
      "type": "node",
      "id": 8221707767,
      "lat": 9.6428937,
      "lon": 1.1418127,
      "tags": {
        "amenity": "marketplace",
        "name": "Marché de Maza"
      }
    },
    {
      "type": "node",
      "id": 8221714474,
      "lat": 9.668767,
      "lon": 1.1716705,
      "tags": {
        "amenity": "marketplace",
        "name": "Marché de Pya Hodo"
      }
    },
    {
      "type": "node",
      "id": 8222113370,
      "lat": 9.870826,
      "lon": 1.0884809,
      "tags": {
        "amenity": "marketplace",
        "name": "Marché de Defalé",
        "opening_hours": "Th"
      }
    },
    {
      "type": "node",
      "id": 8222133869,
      "lat": 10.7026887,
      "lon": 0.1123258,
      "tags": {
        "amenity": "marketplace",
        "name": "Marché de Nano"
      }
    },
    {
      "type": "node",
      "id": 8222224568,
      "lat": 11.1055932,
      "lon": 0.0152539,
      "tags": {
        "amenity": "marketplace",
        "name": "Marché"
      }
    },
    {
      "type": "node",
      "id": 8227924066,
      "lat": 8.3448149,
      "lon": 1.0077041,
      "tags": {
        "amenity": "marketplace",
        "name": "Marché de Blitta Village a"
      }
    },
    {
      "type": "node",
      "id": 8316933716,
      "lat": 8.0068236,
      "lon": 1.0394874,
      "tags": {
        "amenity": "marketplace",
        "name": "Marché de Dakrokossou"
      }
    },
    {
      "type": "node",
      "id": 8317075602,
      "lat": 8.0816327,
      "lon": 1.0038248,
      "tags": {
        "amenity": "marketplace",
        "name": "Marché de Tcharè"
      }
    },
    {
      "type": "node",
      "id": 8350242976,
      "lat": 9.7178462,
      "lon": 1.3361223,
      "tags": {
        "amenity": "marketplace",
        "name": "Marché de Kadjanga"
      }
    },
    {
      "type": "node",
      "id": 8350297586,
      "lat": 9.6680903,
      "lon": 1.3543164,
      "tags": {
        "amenity": "marketplace",
        "name": "Un marché nocturne"
      }
    },
    {
      "type": "node",
      "id": 8350514778,
      "lat": 9.7098436,
      "lon": 1.3339001,
      "tags": {
        "amenity": "marketplace"
      }
    },
    {
      "type": "node",
      "id": 8356812474,
      "lat": 9.6085462,
      "lon": 1.311112,
      "tags": {
        "amenity": "marketplace",
        "name": "Marché de nuit de Poukoulade"
      }
    },
    {
      "type": "node",
      "id": 8356843054,
      "lat": 9.552614,
      "lon": 1.3280797,
      "tags": {
        "amenity": "marketplace",
        "name": "Marché de Sirka"
      }
    },
    {
      "type": "node",
      "id": 8356843144,
      "lat": 9.5439859,
      "lon": 1.3327937,
      "tags": {
        "amenity": "marketplace",
        "name": "Marché de boulédé"
      }
    },
    {
      "type": "node",
      "id": 8356843166,
      "lat": 9.5099896,
      "lon": 1.3523859,
      "tags": {
        "amenity": "marketplace",
        "name": "Marché de N'djei"
      }
    },
    {
      "type": "node",
      "id": 8356843262,
      "lat": 9.4994609,
      "lon": 1.3532066,
      "tags": {
        "amenity": "marketplace"
      }
    },
    {
      "type": "node",
      "id": 8362853839,
      "lat": 9.5959003,
      "lon": 1.2383079,
      "tags": {
        "amenity": "marketplace",
        "name": "Marché de Lassa Ahodo"
      }
    },
    {
      "type": "node",
      "id": 8362853864,
      "lat": 9.6420422,
      "lon": 1.2058635,
      "tags": {
        "amenity": "marketplace"
      }
    },
    {
      "type": "node",
      "id": 8362899031,
      "lat": 9.567722,
      "lon": 1.2242648,
      "tags": {
        "amenity": "marketplace"
      }
    },
    {
      "type": "node",
      "id": 8362899053,
      "lat": 9.5795207,
      "lon": 1.231944,
      "tags": {
        "amenity": "marketplace",
        "name": "Marché Lassa Bas"
      }
    },
    {
      "type": "node",
      "id": 8365529043,
      "lat": 9.6665105,
      "lon": 1.2534123,
      "tags": {
        "amenity": "marketplace"
      }
    },
    {
      "type": "node",
      "id": 8365529048,
      "lat": 9.6555398,
      "lon": 1.2709433,
      "tags": {
        "amenity": "marketplace",
        "name": "Marche de nuit de mercredi"
      }
    },
    {
      "type": "node",
      "id": 8365529052,
      "lat": 9.661441,
      "lon": 1.2688512,
      "tags": {
        "amenity": "marketplace",
        "name": "Marche de nuit de Panalo"
      }
    },
    {
      "type": "node",
      "id": 8365529071,
      "lat": 9.6587948,
      "lon": 1.2876266,
      "tags": {
        "amenity": "marketplace",
        "name": "Marche de nuit de Kasse"
      }
    },
    {
      "type": "node",
      "id": 8365529073,
      "lat": 9.6636429,
      "lon": 1.2030525,
      "tags": {
        "amenity": "marketplace",
        "name": "Marche de Kaade"
      }
    },
    {
      "type": "node",
      "id": 8365529091,
      "lat": 9.6529035,
      "lon": 1.2456232,
      "tags": {
        "amenity": "marketplace",
        "name": "Marche de nuit"
      }
    },
    {
      "type": "node",
      "id": 8365529096,
      "lat": 9.6418617,
      "lon": 1.2540346,
      "tags": {
        "amenity": "marketplace",
        "name": "Marché de Soumdina Bas"
      }
    },
    {
      "type": "node",
      "id": 8365529102,
      "lat": 9.6328861,
      "lon": 1.252664,
      "tags": {
        "amenity": "marketplace",
        "name": "Marché"
      }
    },
    {
      "type": "node",
      "id": 8365552422,
      "lat": 9.5421886,
      "lon": 1.1627537,
      "tags": {
        "amenity": "marketplace"
      }
    },
    {
      "type": "node",
      "id": 8370363805,
      "lat": 9.2755494,
      "lon": 1.0952653,
      "tags": {
        "amenity": "marketplace"
      }
    },
    {
      "type": "node",
      "id": 8370482153,
      "lat": 9.2772316,
      "lon": 1.2347388,
      "tags": {
        "amenity": "marketplace",
        "name": "Marché Communnale"
      }
    },
    {
      "type": "node",
      "id": 8370482216,
      "lat": 9.2893341,
      "lon": 1.1876982,
      "tags": {
        "amenity": "marketplace",
        "name": "Marché DJIKORODE"
      }
    },
    {
      "type": "node",
      "id": 8370486618,
      "lat": 9.2895657,
      "lon": 1.186325,
      "tags": {
        "amenity": "marketplace"
      }
    },
    {
      "type": "node",
      "id": 8413676322,
      "lat": 9.2964691,
      "lon": 1.2392838,
      "tags": {
        "amenity": "marketplace",
        "name": "Marché de Koumondè"
      }
    },
    {
      "type": "node",
      "id": 8413676348,
      "lat": 9.3013656,
      "lon": 1.2379675,
      "tags": {
        "amenity": "marketplace"
      }
    },
    {
      "type": "node",
      "id": 8413676353,
      "lat": 9.2997249,
      "lon": 1.2374023,
      "tags": {
        "amenity": "marketplace",
        "name": "Nouveau marché"
      }
    },
    {
      "type": "node",
      "id": 8413676391,
      "lat": 9.3166203,
      "lon": 1.2385771,
      "tags": {
        "amenity": "marketplace",
        "name": "Marché de fruit"
      }
    },
    {
      "type": "node",
      "id": 8413676396,
      "lat": 9.30351,
      "lon": 1.2374324,
      "tags": {
        "amenity": "marketplace",
        "name": "Marché de Koulikouli"
      }
    },
    {
      "type": "node",
      "id": 8427564209,
      "lat": 6.8477475,
      "lon": 0.5740772,
      "tags": {
        "amenity": "marketplace"
      }
    },
    {
      "type": "node",
      "id": 8427574835,
      "lat": 6.8628602,
      "lon": 0.6010509,
      "tags": {
        "amenity": "marketplace",
        "name": "Marché de Gbalavé"
      }
    },
    {
      "type": "node",
      "id": 8430049306,
      "lat": 6.3412627,
      "lon": 1.1084691,
      "tags": {
        "amenity": "marketplace",
        "name": "Marché de Kovié"
      }
    },
    {
      "type": "node",
      "id": 8447329666,
      "lat": 9.7849755,
      "lon": 1.1205465,
      "tags": {
        "amenity": "marketplace",
        "name": "Marché inoccupé de Niamtougou",
        "operator:type": "public",
        "organic": "yes"
      }
    },
    {
      "type": "node",
      "id": 8451350951,
      "lat": 9.7883978,
      "lon": 1.1061886,
      "tags": {
        "amenity": "marketplace"
      }
    },
    {
      "type": "node",
      "id": 8551714810,
      "lat": 6.2000617,
      "lon": 1.1720844,
      "tags": {
        "amenity": "marketplace",
        "name": "Amétosimé"
      }
    },
    {
      "type": "node",
      "id": 8567134386,
      "lat": 6.3804245,
      "lon": 1.6058171,
      "tags": {
        "amenity": "marketplace",
        "name": "Marché de Mamissi"
      }
    },
    {
      "type": "node",
      "id": 8567159659,
      "lat": 6.4717569,
      "lon": 1.5688254,
      "tags": {
        "amenity": "marketplace"
      }
    },
    {
      "type": "node",
      "id": 8567159677,
      "lat": 6.4157957,
      "lon": 1.5861337,
      "tags": {
        "amenity": "marketplace"
      }
    },
    {
      "type": "node",
      "id": 8567164737,
      "lat": 6.3834153,
      "lon": 1.5747759,
      "tags": {
        "amenity": "marketplace",
        "name": "Marché de TSITSOGBE"
      }
    },
    {
      "type": "node",
      "id": 8570257217,
      "lat": 6.3758436,
      "lon": 0.8856869,
      "tags": {
        "amenity": "marketplace"
      }
    },
    {
      "type": "node",
      "id": 8570331532,
      "lat": 6.4308024,
      "lon": 0.9310876,
      "tags": {
        "amenity": "marketplace"
      }
    },
    {
      "type": "node",
      "id": 8631441851,
      "lat": 6.8910471,
      "lon": 0.8491056,
      "tags": {
        "amenity": "marketplace",
        "name": "Marché de Kati"
      }
    },
    {
      "type": "node",
      "id": 8733917082,
      "lat": 6.6728428,
      "lon": 1.527445,
      "tags": {
        "amenity": "marketplace",
        "name": "Marché de Vodoupé"
      }
    },
    {
      "type": "node",
      "id": 8755697927,
      "lat": 6.1887937,
      "lon": 1.1289882,
      "tags": {
        "amenity": "marketplace",
        "name": "Marché de Logoté"
      }
    },
    {
      "type": "node",
      "id": 8759020306,
      "lat": 6.1776685,
      "lon": 1.2090085,
      "tags": {
        "amenity": "marketplace"
      }
    },
    {
      "type": "node",
      "id": 8777852218,
      "lat": 8.0860037,
      "lon": 1.1375946,
      "tags": {
        "amenity": "marketplace",
        "name": "Marché De Atikpaï",
        "source": "Bing;Survey;Gps"
      }
    },
    {
      "type": "node",
      "id": 8791862009,
      "lat": 8.3069581,
      "lon": 0.9264457,
      "tags": {
        "amenity": "marketplace"
      }
    },
    {
      "type": "node",
      "id": 8797746711,
      "lat": 10.9669024,
      "lon": 0.3410731,
      "tags": {
        "amenity": "marketplace"
      }
    },
    {
      "type": "node",
      "id": 8797784717,
      "lat": 10.9911448,
      "lon": 0.3274494,
      "tags": {
        "amenity": "marketplace",
        "name": "Marché de Tisante mampo"
      }
    },
    {
      "type": "node",
      "id": 8797841439,
      "lat": 10.9756038,
      "lon": 0.2984923,
      "tags": {
        "amenity": "marketplace",
        "name": "Marché de Tantonga carefour"
      }
    },
    {
      "type": "node",
      "id": 8798032100,
      "lat": 10.8931972,
      "lon": 0.3325054,
      "tags": {
        "amenity": "marketplace",
        "name": "Marché de Nabaou"
      }
    },
    {
      "type": "node",
      "id": 8798036521,
      "lat": 10.912362,
      "lon": 0.3073007,
      "tags": {
        "amenity": "marketplace",
        "name": "Grand marché de Korbongou"
      }
    },
    {
      "type": "node",
      "id": 8798036528,
      "lat": 10.8950185,
      "lon": 0.2788344,
      "tags": {
        "amenity": "marketplace"
      }
    },
    {
      "type": "node",
      "id": 8798036593,
      "lat": 10.8998147,
      "lon": 0.2634734,
      "tags": {
        "amenity": "marketplace"
      }
    },
    {
      "type": "node",
      "id": 8798152537,
      "lat": 10.9312767,
      "lon": 0.2996832,
      "tags": {
        "amenity": "marketplace",
        "name": "Marché de Gbagnama"
      }
    },
    {
      "type": "node",
      "id": 8808692841,
      "lat": 10.9961837,
      "lon": 0.3031915,
      "tags": {
        "amenity": "marketplace",
        "name": "Marché Tidante Momba"
      }
    },
    {
      "type": "node",
      "id": 8808719663,
      "lat": 11.0443735,
      "lon": 0.2950309,
      "tags": {
        "amenity": "marketplace"
      }
    },
    {
      "type": "node",
      "id": 8808915191,
      "lat": 11.0004596,
      "lon": 0.3772259,
      "tags": {
        "amenity": "marketplace",
        "name": "marché Nadjou"
      }
    },
    {
      "type": "node",
      "id": 8809422673,
      "lat": 11.1179926,
      "lon": -0.1040523,
      "tags": {
        "amenity": "marketplace"
      }
    },
    {
      "type": "node",
      "id": 8853935140,
      "lat": 11.104726,
      "lon": 0.0305396,
      "tags": {
        "amenity": "marketplace",
        "name": "Marché à Bétail"
      }
    },
    {
      "type": "node",
      "id": 8853935183,
      "lat": 11.1037377,
      "lon": 0.0156614,
      "tags": {
        "amenity": "marketplace",
        "name": "Grand Marché"
      }
    },
    {
      "type": "node",
      "id": 8854640113,
      "lat": 8.3552751,
      "lon": 1.0192555,
      "tags": {
        "amenity": "marketplace",
        "name": "Marché de Blitta Carrefour"
      }
    },
    {
      "type": "node",
      "id": 8854644938,
      "lat": 8.3077782,
      "lon": 1.0835789,
      "tags": {
        "amenity": "marketplace",
        "name": "Marché de Yoloumde"
      }
    },
    {
      "type": "node",
      "id": 8855277030,
      "lat": 6.3372987,
      "lon": 1.4565267,
      "tags": {
        "amenity": "marketplace"
      }
    },
    {
      "type": "node",
      "id": 8855298743,
      "lat": 6.8310484,
      "lon": 0.6435625,
      "tags": {
        "amenity": "marketplace",
        "name": "Marché d'Atchave"
      }
    },
    {
      "type": "node",
      "id": 8855298761,
      "lat": 6.8731505,
      "lon": 0.653482,
      "tags": {
        "amenity": "marketplace",
        "name": "Marché de Tove"
      }
    },
    {
      "type": "node",
      "id": 8855557823,
      "lat": 6.2336406,
      "lon": 1.1513422,
      "tags": {
        "amenity": "marketplace",
        "name": "Marché Zossimé"
      }
    },
    {
      "type": "node",
      "id": 8872050246,
      "lat": 6.4395306,
      "lon": 1.0932684,
      "tags": {
        "amenity": "marketplace"
      }
    },
    {
      "type": "node",
      "id": 8904644859,
      "lat": 6.276993,
      "lon": 1.1679062,
      "tags": {
        "amenity": "marketplace",
        "organic": "yes"
      }
    },
    {
      "type": "node",
      "id": 8922931517,
      "lat": 8.2375375,
      "lon": 0.773659,
      "tags": {
        "amenity": "marketplace",
        "name": "Marché de M'poti",
        "source": "Bing"
      }
    },
    {
      "type": "node",
      "id": 8984095035,
      "lat": 10.7482454,
      "lon": 0.0032536,
      "tags": {
        "amenity": "marketplace",
        "name": "Marché de Tampialime"
      }
    },
    {
      "type": "node",
      "id": 8984109146,
      "lat": 11.0051133,
      "lon": 0.2573567,
      "tags": {
        "amenity": "marketplace"
      }
    },
    {
      "type": "node",
      "id": 8991419377,
      "lat": 10.5821283,
      "lon": 0.1262033,
      "tags": {
        "amenity": "marketplace"
      }
    },
    {
      "type": "node",
      "id": 8991442153,
      "lat": 10.6114419,
      "lon": 0.1518903,
      "tags": {
        "amenity": "marketplace",
        "name": "Marché Noak louanbene"
      }
    },
    {
      "type": "node",
      "id": 9025489750,
      "lat": 6.3302973,
      "lon": 1.6071193,
      "tags": {
        "amenity": "marketplace",
        "name": "Marché de Anfouin"
      }
    },
    {
      "type": "node",
      "id": 9026874315,
      "lat": 10.2364622,
      "lon": 0.6392713,
      "tags": {
        "amenity": "marketplace"
      }
    },
    {
      "type": "node",
      "id": 9050325936,
      "lat": 10.848687,
      "lon": 0.2138066,
      "tags": {
        "amenity": "marketplace",
        "name": "Marché de Dapankpergou"
      }
    },
    {
      "type": "node",
      "id": 9053199525,
      "lat": 6.4479276,
      "lon": 0.9809241,
      "tags": {
        "amenity": "marketplace"
      }
    },
    {
      "type": "node",
      "id": 9053199529,
      "lat": 6.4467762,
      "lon": 0.9800912,
      "tags": {
        "amenity": "marketplace"
      }
    },
    {
      "type": "node",
      "id": 9053455704,
      "lat": 6.8882871,
      "lon": 0.7273252,
      "tags": {
        "amenity": "marketplace"
      }
    },
    {
      "type": "node",
      "id": 9053465025,
      "lat": 6.8344279,
      "lon": 0.6788993,
      "tags": {
        "amenity": "marketplace"
      }
    },
    {
      "type": "node",
      "id": 9053465058,
      "lat": 6.8733776,
      "lon": 0.6690006,
      "tags": {
        "amenity": "marketplace",
        "name": "Marché de fruit"
      }
    },
    {
      "type": "node",
      "id": 9053482649,
      "lat": 6.8897237,
      "lon": 0.7705316,
      "tags": {
        "amenity": "marketplace"
      }
    },
    {
      "type": "node",
      "id": 9053482652,
      "lat": 6.8911962,
      "lon": 0.7710466,
      "tags": {
        "amenity": "marketplace",
        "name": "Marché de fruit"
      }
    },
    {
      "type": "node",
      "id": 9053536616,
      "lat": 6.7952461,
      "lon": 0.7052466,
      "tags": {
        "amenity": "marketplace"
      }
    },
    {
      "type": "node",
      "id": 9053559727,
      "lat": 6.7502823,
      "lon": 0.7599208,
      "tags": {
        "amenity": "marketplace"
      }
    },
    {
      "type": "node",
      "id": 9053559738,
      "lat": 6.7950902,
      "lon": 0.7948378,
      "tags": {
        "amenity": "marketplace",
        "name": "Marché d'igname"
      }
    },
    {
      "type": "node",
      "id": 9060223590,
      "lat": 11.007238,
      "lon": 0.186321,
      "tags": {
        "amenity": "marketplace",
        "name": "Marché de Nadjoundji"
      }
    },
    {
      "type": "node",
      "id": 9060361841,
      "lat": 11.0120318,
      "lon": 0.1912065,
      "tags": {
        "amenity": "marketplace",
        "name": "Marché de Nadjoundi"
      }
    },
    {
      "type": "node",
      "id": 9060604163,
      "lat": 11.0134428,
      "lon": 0.231925,
      "tags": {
        "amenity": "marketplace",
        "name": "Marché de Kourientre"
      }
    },
    {
      "type": "node",
      "id": 9061853224,
      "lat": 10.9442171,
      "lon": 0.2679126,
      "tags": {
        "amenity": "marketplace",
        "name": "Marché de tomonga"
      }
    },
    {
      "type": "node",
      "id": 9062096946,
      "lat": 10.9815076,
      "lon": 0.261224,
      "tags": {
        "amenity": "marketplace",
        "name": "Marché de Bougou"
      }
    },
    {
      "type": "node",
      "id": 9062859183,
      "lat": 11.061029,
      "lon": 0.2381046,
      "tags": {
        "amenity": "marketplace",
        "name": "Marché de Djakpaga"
      }
    },
    {
      "type": "node",
      "id": 9066263042,
      "lat": 10.8557528,
      "lon": 0.1360805,
      "tags": {
        "amenity": "marketplace"
      }
    },
    {
      "type": "node",
      "id": 9067194204,
      "lat": 10.8185822,
      "lon": 0.1011529,
      "tags": {
        "amenity": "marketplace",
        "name": "Marché de Tonte"
      }
    },
    {
      "type": "node",
      "id": 9070583653,
      "lat": 10.82819,
      "lon": 0.0447789,
      "tags": {
        "amenity": "marketplace"
      }
    },
    {
      "type": "node",
      "id": 9074219327,
      "lat": 10.7987089,
      "lon": 0.0252434,
      "tags": {
        "amenity": "marketplace",
        "name": "Marché de Lotogou"
      }
    },
    {
      "type": "node",
      "id": 9074219522,
      "lat": 10.8582078,
      "lon": 0.0402895,
      "tags": {
        "amenity": "marketplace",
        "name": "Marché de Tami"
      }
    },
    {
      "type": "node",
      "id": 9077613672,
      "lat": 10.7833082,
      "lon": -0.0348304,
      "tags": {
        "amenity": "marketplace",
        "name": "Marché de Warkambou"
      }
    },
    {
      "type": "node",
      "id": 9081901749,
      "lat": 10.9807058,
      "lon": 0.129899,
      "tags": {
        "amenity": "marketplace",
        "name": "Marché de Gnabadjoani"
      }
    },
    {
      "type": "node",
      "id": 9082105007,
      "lat": 10.9873753,
      "lon": 0.0876422,
      "tags": {
        "amenity": "marketplace",
        "name": "Marché de Namaré"
      }
    },
    {
      "type": "node",
      "id": 9083673356,
      "lat": 10.8930786,
      "lon": 0.0202397,
      "tags": {
        "amenity": "marketplace"
      }
    },
    {
      "type": "node",
      "id": 9094648871,
      "lat": 10.6924169,
      "lon": 0.2378091,
      "tags": {
        "amenity": "marketplace",
        "name": "Marché de Boulogou"
      }
    },
    {
      "type": "node",
      "id": 9105490007,
      "lat": 10.8163789,
      "lon": 0.1830931,
      "tags": {
        "amenity": "marketplace",
        "name": "Marché de Dalwak"
      }
    },
    {
      "type": "node",
      "id": 9114864338,
      "lat": 10.6215964,
      "lon": 0.2982871,
      "tags": {
        "amenity": "marketplace",
        "name": "Marché de Boulogou"
      }
    },
    {
      "type": "node",
      "id": 9116894782,
      "lat": 10.6326367,
      "lon": 0.3199847,
      "tags": {
        "amenity": "marketplace",
        "name": "Marché de kolk II"
      }
    },
    {
      "type": "node",
      "id": 9117377474,
      "lat": 10.7169643,
      "lon": 0.1521506,
      "tags": {
        "amenity": "marketplace"
      }
    },
    {
      "type": "node",
      "id": 9119644519,
      "lat": 10.7290482,
      "lon": 0.1781629,
      "tags": {
        "amenity": "marketplace",
        "name": "Marché de Nassiete"
      }
    },
    {
      "type": "node",
      "id": 9120504217,
      "lat": 10.699229,
      "lon": 0.0955426,
      "tags": {
        "amenity": "marketplace"
      }
    },
    {
      "type": "node",
      "id": 9127169624,
      "lat": 10.7518342,
      "lon": 0.4091369,
      "tags": {
        "amenity": "marketplace",
        "name": "Marché de Nayega"
      }
    },
    {
      "type": "node",
      "id": 9129749073,
      "lat": 10.7435959,
      "lon": 0.4706028,
      "tags": {
        "amenity": "marketplace",
        "name": "Marché de Ogaro"
      }
    },
    {
      "type": "node",
      "id": 9145714310,
      "lat": 10.2450692,
      "lon": 0.4029299,
      "tags": {
        "amenity": "marketplace"
      }
    },
    {
      "type": "node",
      "id": 9156357131,
      "lat": 6.3398066,
      "lon": 1.0998471,
      "tags": {
        "amenity": "marketplace",
        "name": "Marché de kovié"
      }
    },
    {
      "type": "node",
      "id": 9165194868,
      "lat": 10.5654838,
      "lon": 0.7323027,
      "tags": {
        "amenity": "marketplace"
      }
    },
    {
      "type": "node",
      "id": 9210413322,
      "lat": 9.9690381,
      "lon": 0.5738543,
      "tags": {
        "amenity": "marketplace",
        "name": "Marché de Takpamba"
      }
    },
    {
      "type": "node",
      "id": 9258068318,
      "lat": 8.1736514,
      "lon": 0.9808985,
      "tags": {
        "amenity": "marketplace",
        "name": "Marché de Pagala",
        "operator": "Public",
        "organic": "no",
        "wheelchair": "limited"
      }
    },
    {
      "type": "node",
      "id": 9275708662,
      "lat": 10.8127636,
      "lon": 0.1960321,
      "tags": {
        "amenity": "marketplace",
        "name": "Tantilgle"
      }
    },
    {
      "type": "node",
      "id": 9306404021,
      "lat": 10.830226,
      "lon": 0.1338485,
      "tags": {
        "amenity": "marketplace",
        "name": "Marché Nioukpourma"
      }
    },
    {
      "type": "node",
      "id": 9340489560,
      "lat": 6.2457739,
      "lon": 1.4817482,
      "tags": {
        "amenity": "marketplace",
        "name": "Marché de Togoville"
      }
    },
    {
      "type": "node",
      "id": 9346840691,
      "lat": 7.1424496,
      "lon": 1.5934119,
      "tags": {
        "amenity": "marketplace",
        "source": "Bing"
      }
    },
    {
      "type": "node",
      "id": 9357913671,
      "lat": 6.5343014,
      "lon": 1.3592878,
      "tags": {
        "amenity": "marketplace",
        "name": "Marché de tchékpo"
      }
    },
    {
      "type": "node",
      "id": 9360246688,
      "lat": 6.2468007,
      "lon": 1.5596103,
      "tags": {
        "amenity": "marketplace",
        "name": "Marché de Djankassé"
      }
    },
    {
      "type": "node",
      "id": 9360321939,
      "lat": 6.2471595,
      "lon": 1.5549408,
      "tags": {
        "amenity": "marketplace",
        "name": "Marché de Kéta-akoda"
      }
    },
    {
      "type": "node",
      "id": 9363693003,
      "lat": 6.366963,
      "lon": 1.418421,
      "tags": {
        "amenity": "marketplace",
        "name": "Marché d'Hahotoé"
      }
    },
    {
      "type": "node",
      "id": 9366671394,
      "lat": 6.2438323,
      "lon": 1.4837136,
      "tags": {
        "amenity": "marketplace",
        "name": "Marché de Togoville"
      }
    },
    {
      "type": "node",
      "id": 9426488621,
      "lat": 7.3165832,
      "lon": 1.1615467,
      "tags": {
        "amenity": "marketplace",
        "source": "CNES/Airbus"
      }
    },
    {
      "type": "node",
      "id": 9518890028,
      "lat": 9.3239314,
      "lon": 0.5834741,
      "tags": {
        "amenity": "marketplace",
        "name": "Marché de Bitchabé"
      }
    },
    {
      "type": "node",
      "id": 9692735701,
      "lat": 6.200009,
      "lon": 1.2411082,
      "tags": {
        "amenity": "marketplace",
        "name": "Marché de Kegué"
      }
    },
    {
      "type": "node",
      "id": 9873076010,
      "lat": 9.7617078,
      "lon": 1.2813413,
      "tags": {
        "amenity": "marketplace"
      }
    },
    {
      "type": "node",
      "id": 9881564668,
      "lat": 6.2607187,
      "lon": 1.0362929,
      "tags": {
        "amenity": "marketplace",
        "name": "Marché de Noépé",
        "operator:type": "public"
      }
    },
    {
      "type": "node",
      "id": 9885292978,
      "lat": 10.9063313,
      "lon": 0.092842,
      "tags": {
        "amenity": "marketplace",
        "description": "Crée vers 1983 c'est un marché très important pour toutes sortes de marchandises surtout les céréales, les oignons, le bétail et les volailles",
        "name": "Marché de Naki-Ouest centre",
        "opening_hours": "Tu, Fr 06:00-20:00"
      }
    },
    {
      "type": "node",
      "id": 9889692729,
      "lat": 10.687016,
      "lon": 0.3450179,
      "tags": {
        "amenity": "marketplace"
      }
    },
    {
      "type": "node",
      "id": 9969272173,
      "lat": 10.8644708,
      "lon": 0.199185,
      "tags": {
        "amenity": "marketplace",
        "name": "Marché de bétail"
      }
    },
    {
      "type": "node",
      "id": 10003732986,
      "lat": 10.8667579,
      "lon": 0.1885419,
      "tags": {
        "amenity": "marketplace",
        "name": "Tomone"
      }
    },
    {
      "type": "node",
      "id": 10237731387,
      "lat": 8.191855,
      "lon": 1.343385,
      "tags": {
        "amenity": "marketplace",
        "name": "Marché de Tchékita"
      }
    },
    {
      "type": "node",
      "id": 10246938499,
      "lat": 6.3393317,
      "lon": 1.0999954,
      "tags": {
        "amenity": "marketplace",
        "name": "Marché Kovié"
      }
    },
    {
      "type": "node",
      "id": 10562377526,
      "lat": 6.2581565,
      "lon": 1.1765684,
      "tags": {
        "amenity": "marketplace"
      }
    },
    {
      "type": "node",
      "id": 10573359571,
      "lat": 7.0707017,
      "lon": 1.1517918,
      "tags": {
        "amenity": "marketplace",
        "name": "Marché Agbatitoe"
      }
    },
    {
      "type": "node",
      "id": 10608610508,
      "lat": 7.6488601,
      "lon": 1.1812717,
      "tags": {
        "amenity": "marketplace"
      }
    },
    {
      "type": "node",
      "id": 10782291059,
      "lat": 7.5321155,
      "lon": 1.1219613,
      "tags": {
        "addr:municipality": "Ogou 1",
        "amenity": "marketplace",
        "electricity": "yes",
        "name": "BLAKPA (GRAND MARCHÉ)",
        "opening_hours": "Sa 06:00-18:00",
        "operator": "Mairie d'atakpame",
        "source": "WNA Hb - Mia Tou Togo project"
      }
    },
    {
      "type": "node",
      "id": 10782291060,
      "lat": 7.5447472,
      "lon": 1.1501923,
      "tags": {
        "addr:municipality": "Ogou 1",
        "amenity": "marketplace",
        "name": "Agbadou-sada",
        "opening_hours": "We,Sa 07:00-18:30",
        "source": "WNA Hb - Mia Tou Togo project"
      }
    },
    {
      "type": "node",
      "id": 10782291071,
      "lat": 7.5349379,
      "lon": 1.1545154,
      "tags": {
        "addr:municipality": "Ogou 1",
        "amenity": "marketplace",
        "name": "Marché Akpatchou",
        "opening_hours": "Th,Fr 16:00-18:30",
        "operator": "CDQ",
        "source": "WNA Hb - Mia Tou Togo project"
      }
    },
    {
      "type": "node",
      "id": 10783807040,
      "lat": 6.7274742,
      "lon": 1.0529986,
      "tags": {
        "amenity": "marketplace",
        "name": "Marché Datiho"
      }
    },
    {
      "type": "node",
      "id": 10783821911,
      "lat": 6.7261649,
      "lon": 1.0204732,
      "tags": {
        "amenity": "marketplace",
        "name": "Marche kodje"
      }
    },
    {
      "type": "node",
      "id": 10812137261,
      "lat": 10.554283,
      "lon": 0.3010699,
      "tags": {
        "amenity": "marketplace",
        "name": "Marché de Barkoissi"
      }
    },
    {
      "type": "node",
      "id": 10819490165,
      "lat": 9.6208486,
      "lon": 1.1422026,
      "tags": {
        "amenity": "marketplace",
        "name": "Marché de Tchitchao"
      }
    },
    {
      "type": "node",
      "id": 10825058897,
      "lat": 9.5127173,
      "lon": 1.0499687,
      "tags": {
        "amenity": "marketplace",
        "name": "Marché de Djamdè"
      }
    },
    {
      "type": "node",
      "id": 10976934731,
      "lat": 10.6639182,
      "lon": 0.0733127,
      "tags": {
        "amenity": "marketplace",
        "name": "Marché de Malagou"
      }
    },
    {
      "type": "node",
      "id": 10990413186,
      "lat": 6.1868223,
      "lon": 1.1811768,
      "tags": {
        "amenity": "marketplace",
        "name": "Marché de Gbotossimé"
      }
    },
    {
      "type": "node",
      "id": 11059399154,
      "lat": 9.6132311,
      "lon": 1.2441279,
      "tags": {
        "amenity": "marketplace"
      }
    },
    {
      "type": "node",
      "id": 11069023723,
      "lat": 9.6174795,
      "lon": 1.1562923,
      "tags": {
        "amenity": "marketplace",
        "name": "Marché de Yadè"
      }
    },
    {
      "type": "node",
      "id": 11083397731,
      "lat": 8.3374893,
      "lon": 0.9963387,
      "tags": {
        "amenity": "marketplace",
        "name": "Marché de Blitta",
        "organic": "yes",
        "wheelchair": "limited"
      }
    },
    {
      "type": "node",
      "id": 11084142544,
      "lat": 8.3512228,
      "lon": 1.0102379,
      "tags": {
        "amenity": "marketplace"
      }
    },
    {
      "type": "node",
      "id": 11084995063,
      "lat": 9.7828292,
      "lon": 0.4655671,
      "tags": {
        "amenity": "marketplace"
      }
    },
    {
      "type": "node",
      "id": 11166039919,
      "lat": 8.0581248,
      "lon": 1.0186493,
      "tags": {
        "amenity": "marketplace",
        "name": "Marché de Tcharè-Baou"
      }
    },
    {
      "type": "node",
      "id": 11166585380,
      "lat": 8.4322551,
      "lon": 0.995416,
      "tags": {
        "amenity": "marketplace",
        "note": "to be verified on ground",
        "source": "bing"
      }
    },
    {
      "type": "node",
      "id": 11183878986,
      "lat": 7.3901646,
      "lon": 0.8678036,
      "tags": {
        "amenity": "marketplace",
        "name": "Marché d'Amou-Oblo"
      }
    },
    {
      "type": "node",
      "id": 11184607923,
      "lat": 8.6826658,
      "lon": 0.9398541,
      "tags": {
        "amenity": "marketplace"
      }
    },
    {
      "type": "node",
      "id": 11213292198,
      "lat": 6.727106,
      "lon": 1.1719163,
      "tags": {
        "amenity": "marketplace",
        "name": "Marché de Gamé"
      }
    },
    {
      "type": "node",
      "id": 11223334923,
      "lat": 6.1385611,
      "lon": 1.218232,
      "tags": {
        "amenity": "marketplace",
        "name": "Marché de hanoukopé N'tisimé",
        "source": "Bing;Esri"
      }
    },
    {
      "type": "node",
      "id": 11234551199,
      "lat": 6.6813858,
      "lon": 1.1682405,
      "tags": {
        "amenity": "marketplace",
        "name": "Marché d'Agbélouvé"
      }
    },
    {
      "type": "node",
      "id": 11234617438,
      "lat": 6.5556926,
      "lon": 1.1844296,
      "tags": {
        "amenity": "marketplace",
        "name": "Marché de Lilikopé"
      }
    },
    {
      "type": "node",
      "id": 11234619176,
      "lat": 6.306199,
      "lon": 1.2145949,
      "tags": {
        "amenity": "marketplace",
        "name": "Marché des bétails"
      }
    },
    {
      "type": "node",
      "id": 11248766494,
      "lat": 7.0852819,
      "lon": 1.1090855,
      "tags": {
        "amenity": "marketplace"
      }
    },
    {
      "type": "node",
      "id": 11250836920,
      "lat": 7.1175382,
      "lon": 1.0672778,
      "tags": {
        "amenity": "marketplace",
        "name": "Marché Akpakpakpé"
      }
    },
    {
      "type": "node",
      "id": 11323101849,
      "lat": 9.5896146,
      "lon": 1.307841,
      "tags": {
        "amenity": "marketplace",
        "name": "Marché de Sangayinlao"
      }
    },
    {
      "type": "node",
      "id": 11330086947,
      "lat": 10.2552291,
      "lon": 0.8729653,
      "tags": {
        "amenity": "marketplace",
        "name": "Marché de Takpapiani"
      }
    },
    {
      "type": "node",
      "id": 11359949506,
      "lat": 6.1289955,
      "lon": 1.2009945,
      "tags": {
        "addr:street": "rue Bassar 95NYK",
        "amenity": "marketplace",
        "description": "Établissement publique autonome pour l'exploitation des marchés EPAM",
        "name": "Marché de nyekonapkoè",
        "phone": "2210263/2266021"
      }
    },
    {
      "type": "node",
      "id": 11359950830,
      "lat": 6.128889,
      "lon": 1.200997,
      "tags": {
        "amenity": "marketplace",
        "name": "Marché de Nyekonakpoè"
      }
    },
    {
      "type": "node",
      "id": 11371080081,
      "lat": 6.2555409,
      "lon": 1.152969,
      "tags": {
        "amenity": "marketplace",
        "name": "Marché de Légbassito - Kové"
      }
    },
    {
      "type": "node",
      "id": 11449745089,
      "lat": 6.9471886,
      "lon": 1.1747373,
      "tags": {
        "amenity": "marketplace",
        "name": "Supermarché"
      }
    },
    {
      "type": "node",
      "id": 11549722644,
      "lat": 6.1922736,
      "lon": 1.3386463,
      "tags": {
        "amenity": "marketplace",
        "name": "Place du marché de Dévégo"
      }
    },
    {
      "type": "node",
      "id": 11680194933,
      "lat": 6.5550547,
      "lon": 1.6648947,
      "tags": {
        "amenity": "marketplace",
        "name": "Marché d'agomé glozou"
      }
    },
    {
      "type": "node",
      "id": 11725449212,
      "lat": 6.7528519,
      "lon": 1.0737761,
      "tags": {
        "amenity": "marketplace"
      }
    },
    {
      "type": "node",
      "id": 11732319577,
      "lat": 6.7385543,
      "lon": 1.3145532,
      "tags": {
        "amenity": "marketplace"
      }
    },
    {
      "type": "node",
      "id": 11732320529,
      "lat": 6.7099175,
      "lon": 1.4774414,
      "tags": {
        "amenity": "marketplace"
      }
    },
    {
      "type": "node",
      "id": 11752460665,
      "lat": 6.7533758,
      "lon": 1.0729874,
      "tags": {
        "amenity": "marketplace"
      }
    },
    {
      "type": "node",
      "id": 11772422276,
      "lat": 7.7359943,
      "lon": 0.6760721,
      "tags": {
        "amenity": "marketplace",
        "name": "Marché Brounfou"
      }
    },
    {
      "type": "node",
      "id": 11772432179,
      "lat": 7.6557473,
      "lon": 0.7871249,
      "tags": {
        "amenity": "marketplace",
        "name": "Marché de Kougnohou"
      }
    },
    {
      "type": "node",
      "id": 11772434292,
      "lat": 7.8703708,
      "lon": 0.7415731,
      "tags": {
        "amenity": "marketplace",
        "name": "Marché de SEREGBENE"
      }
    },
    {
      "type": "node",
      "id": 11879231275,
      "lat": 6.3303057,
      "lon": 1.3829795,
      "tags": {
        "amenity": "marketplace",
        "name": "Marché Akodesséwa Hahotoé"
      }
    },
    {
      "type": "node",
      "id": 11905597034,
      "lat": 6.4162782,
      "lon": 1.5867323,
      "tags": {
        "amenity": "marketplace"
      }
    },
    {
      "type": "node",
      "id": 11905597944,
      "lat": 6.3318312,
      "lon": 1.3419595,
      "tags": {
        "amenity": "marketplace"
      }
    },
    {
      "type": "node",
      "id": 11941885739,
      "lat": 9.6506715,
      "lon": 0.9525379,
      "tags": {
        "amenity": "marketplace",
        "name": "Marché de YAKA"
      }
    },
    {
      "type": "node",
      "id": 12010342352,
      "lat": 8.0044013,
      "lon": 0.6596518,
      "tags": {
        "amenity": "marketplace",
        "name": "Marché de Assoukoko",
        "organic": "yes"
      }
    },
    {
      "type": "node",
      "id": 12046225309,
      "lat": 10.34725,
      "lon": 0.7489336,
      "tags": {
        "amenity": "marketplace"
      }
    },
    {
      "type": "node",
      "id": 12050832973,
      "lat": 9.202406,
      "lon": 0.596325,
      "tags": {
        "amenity": "marketplace",
        "name": "Marché Dimori"
      }
    },
    {
      "type": "node",
      "id": 12084962863,
      "lat": 9.4897865,
      "lon": 1.296663,
      "tags": {
        "amenity": "marketplace",
        "name": "marché"
      }
    },
    {
      "type": "node",
      "id": 12089509817,
      "lat": 7.1955361,
      "lon": 1.047966,
      "tags": {
        "amenity": "marketplace",
        "name": "Marché de Koussogba"
      }
    },
    {
      "type": "node",
      "id": 12089516262,
      "lat": 7.2072912,
      "lon": 0.9607051,
      "tags": {
        "amenity": "marketplace"
      }
    },
    {
      "type": "node",
      "id": 12089518938,
      "lat": 8.1087033,
      "lon": 1.350685,
      "tags": {
        "amenity": "marketplace",
        "name": "Marché de Moritan"
      }
    },
    {
      "type": "node",
      "id": 12089523126,
      "lat": 6.9088986,
      "lon": 0.9424927,
      "tags": {
        "amenity": "marketplace"
      }
    },
    {
      "type": "node",
      "id": 12089540878,
      "lat": 7.9241362,
      "lon": 0.8555898,
      "tags": {
        "amenity": "marketplace"
      }
    },
    {
      "type": "node",
      "id": 12089547845,
      "lat": 8.1477889,
      "lon": 1.5303452,
      "tags": {
        "amenity": "marketplace",
        "name": "Marché de Badin copé 2"
      }
    },
    {
      "type": "node",
      "id": 12091024163,
      "lat": 6.8589429,
      "lon": 1.1854573,
      "tags": {
        "amenity": "marketplace",
        "name": "Marché de Kpélé"
      }
    },
    {
      "type": "node",
      "id": 12101147238,
      "lat": 8.3648279,
      "lon": 1.3627511,
      "tags": {
        "amenity": "marketplace",
        "name": "Marché Issati"
      }
    },
    {
      "type": "node",
      "id": 12114096487,
      "lat": 7.5760169,
      "lon": 0.6757802,
      "tags": {
        "amenity": "marketplace",
        "name": "Marché de Zogbégan"
      }
    },
    {
      "type": "node",
      "id": 12121181506,
      "lat": 8.3293226,
      "lon": 1.5938799,
      "tags": {
        "amenity": "marketplace",
        "name": "Marché Yanda"
      }
    },
    {
      "type": "node",
      "id": 12199752427,
      "lat": 7.4631214,
      "lon": 0.7117208,
      "tags": {
        "amenity": "marketplace"
      }
    },
    {
      "type": "node",
      "id": 12199938102,
      "lat": 7.4418149,
      "lon": 0.6752986,
      "tags": {
        "amenity": "marketplace"
      }
    },
    {
      "type": "node",
      "id": 12199938402,
      "lat": 7.5731504,
      "lon": 0.6055467,
      "tags": {
        "amenity": "marketplace"
      }
    },
    {
      "type": "node",
      "id": 12212051492,
      "lat": 7.0016951,
      "lon": 1.4089191,
      "tags": {
        "amenity": "marketplace",
        "name": "Marché"
      }
    },
    {
      "type": "node",
      "id": 12399665351,
      "lat": 7.3875617,
      "lon": 0.8679065,
      "tags": {
        "amenity": "marketplace",
        "name": "Ancien marché"
      }
    },
    {
      "type": "node",
      "id": 12429572562,
      "lat": 9.1213442,
      "lon": 1.3240752,
      "tags": {
        "amenity": "marketplace"
      }
    },
    {
      "type": "node",
      "id": 12429667969,
      "lat": 8.2021672,
      "lon": 0.8096744,
      "tags": {
        "amenity": "marketplace",
        "name": "Nouveau marché"
      }
    },
    {
      "type": "node",
      "id": 12429770361,
      "lat": 9.1123916,
      "lon": 1.1443033,
      "tags": {
        "amenity": "marketplace"
      }
    },
    {
      "type": "node",
      "id": 12429780324,
      "lat": 9.637368,
      "lon": 0.9572107,
      "tags": {
        "amenity": "marketplace"
      }
    },
    {
      "type": "node",
      "id": 12429780451,
      "lat": 9.7963218,
      "lon": 1.2449515,
      "tags": {
        "amenity": "marketplace"
      }
    },
    {
      "type": "node",
      "id": 12429853750,
      "lat": 9.6282334,
      "lon": 1.0053865,
      "tags": {
        "amenity": "marketplace"
      }
    },
    {
      "type": "node",
      "id": 12484064994,
      "lat": 6.4724988,
      "lon": 1.5570416,
      "tags": {
        "amenity": "marketplace",
        "name": "Marché"
      }
    },
    {
      "type": "node",
      "id": 12484102919,
      "lat": 6.4827264,
      "lon": 1.4980672,
      "tags": {
        "amenity": "marketplace",
        "name": "Marché de Dagbati"
      }
    },
    {
      "type": "node",
      "id": 12568454745,
      "lat": 7.9516822,
      "lon": 1.2858818,
      "tags": {
        "amenity": "marketplace",
        "name": "Marché de Élavagnon"
      }
    },
    {
      "type": "node",
      "id": 12728221267,
      "lat": 9.7307963,
      "lon": 1.2432602,
      "tags": {
        "amenity": "marketplace",
        "name": "Marché de Farendè"
      }
    },
    {
      "type": "node",
      "id": 12736276908,
      "lat": 8.4261185,
      "lon": 1.1515409,
      "tags": {
        "amenity": "marketplace",
        "name": "Marché de Kaza"
      }
    },
    {
      "type": "node",
      "id": 12736307501,
      "lat": 6.2616479,
      "lon": 1.036286,
      "tags": {
        "amenity": "marketplace",
        "name": "Marché de Noèpé"
      }
    },
    {
      "type": "node",
      "id": 12741301281,
      "lat": 9.4489719,
      "lon": 1.2101054,
      "tags": {
        "amenity": "marketplace",
        "name": "Marché d'Awandjélo",
        "source": "Bing;Survey"
      }
    },
    {
      "type": "node",
      "id": 12743543911,
      "lat": 9.479953,
      "lon": 1.1329865,
      "tags": {
        "amenity": "marketplace",
        "name": "Marché d'Atchangbadè",
        "source": "Bing"
      }
    },
    {
      "type": "node",
      "id": 12793541563,
      "lat": 9.4219782,
      "lon": 0.6233561,
      "tags": {
        "amenity": "marketplace",
        "name": "Marché de Bangeli"
      }
    },
    {
      "type": "node",
      "id": 12804829343,
      "lat": 10.3566052,
      "lon": 0.4757139,
      "tags": {
        "amenity": "marketplace",
        "name": "Marché de Mango",
        "name:ar": "سوق مانغو",
        "source": "Bing"
      }
    },
    {
      "type": "node",
      "id": 12847872226,
      "lat": 6.1410668,
      "lon": 1.2183934,
      "tags": {
        "amenity": "marketplace",
        "name": "Marché De Hanoukopé (le Togo)",
        "source": "Bing;Esri"
      }
    },
    {
      "type": "node",
      "id": 12858235896,
      "lat": 6.1792568,
      "lon": 1.2140867,
      "tags": {
        "amenity": "marketplace",
        "name": "Market CHU"
      }
    },
    {
      "type": "node",
      "id": 13130889155,
      "lat": 9.3999387,
      "lon": 1.1138973,
      "tags": {
        "amenity": "marketplace"
      }
    },
    {
      "type": "node",
      "id": 13395460872,
      "lat": 9.5382485,
      "lon": 1.1612295,
      "tags": {
        "amenity": "marketplace",
        "name": "Petit Marché"
      }
    },
    {
      "type": "node",
      "id": 13408715089,
      "lat": 9.6828693,
      "lon": 1.2395883,
      "tags": {
        "amenity": "marketplace",
        "name": "Petit Marché de Houloun"
      }
    },
    {
      "type": "node",
      "id": 13411719288,
      "lat": 9.9438168,
      "lon": 0.9442663,
      "tags": {
        "amenity": "marketplace",
        "name": "Ataloté"
      }
    },
    {
      "type": "node",
      "id": 13411719418,
      "lat": 9.9464825,
      "lon": 1.046716,
      "tags": {
        "amenity": "marketplace"
      }
    },
    {
      "type": "node",
      "id": 13412909397,
      "lat": 9.4822626,
      "lon": 0.9398031,
      "tags": {
        "amenity": "marketplace"
      }
    },
    {
      "type": "node",
      "id": 13526557147,
      "lat": 10.941729,
      "lon": 0.6440413,
      "tags": {
        "amenity": "marketplace",
        "name": "Koudjouaré"
      }
    },
    {
      "type": "node",
      "id": 13606837482,
      "lat": 9.7508052,
      "lon": 1.3303542,
      "tags": {
        "amenity": "marketplace",
        "name": "Nouveau marché"
      }
    },
    {
      "type": "node",
      "id": 13665638884,
      "lat": 9.7899156,
      "lon": 1.1023919,
      "tags": {
        "amenity": "marketplace",
        "name": "Marché de Baga"
      }
    },
    {
      "type": "node",
      "id": 13820901456,
      "lat": 6.5869934,
      "lon": 1.5031248,
      "tags": {
        "amenity": "marketplace",
        "name": "Marché de Tabligbo"
      }
    },
    {
      "type": "way",
      "id": 113793454,
      "nodes": [
        1290069974,
        1290070009,
        1290053018,
        1290053408,
        1290069974
      ],
      "tags": {
        "amenity": "marketplace",
        "building": "yes"
      }
    },
    {
      "type": "way",
      "id": 200074784,
      "nodes": [
        2100609962,
        3284611177,
        3284611178,
        2100609958,
        3284611175,
        3284611168,
        3284611169,
        3284611171,
        3284611174,
        2100609956,
        2100609966,
        2100609970,
        3284611179,
        2100609962
      ],
      "tags": {
        "amenity": "marketplace",
        "name": "Marché d'Agoè-Assiyéyé",
        "source": "bing;"
      }
    },
    {
      "type": "way",
      "id": 227994837,
      "nodes": [
        2366184905,
        2366184913,
        2366184912,
        2366184881,
        2366184885,
        2366184887,
        2366184905
      ],
      "tags": {
        "amenity": "marketplace",
        "name": "Marché de Djidjolé",
        "source": "bing;survey"
      }
    },
    {
      "type": "way",
      "id": 230197950,
      "nodes": [
        2387283143,
        2387283135,
        2387283137,
        2387283141,
        2387283145,
        2387283143
      ],
      "tags": {
        "amenity": "marketplace",
        "name": "Marché de Totsi",
        "source": "bing"
      }
    },
    {
      "type": "way",
      "id": 230227835,
      "nodes": [
        2387531828,
        2387686219,
        2387697832,
        2387531827,
        2387686235,
        2387531829,
        2387697868,
        2387531830,
        2387531831,
        2387686351,
        2387531828
      ],
      "tags": {
        "amenity": "marketplace",
        "name": "Atikpodji",
        "source": "bing and survey"
      }
    },
    {
      "type": "way",
      "id": 232367236,
      "nodes": [
        2407201244,
        2407201242,
        2407201241,
        2407201238,
        2407201240,
        2407201239,
        2407201235,
        2407201233,
        2407201232,
        2407201234,
        2407201237,
        2407201243,
        2407201245,
        2407201244
      ],
      "tags": {
        "amenity": "marketplace",
        "name": "Marché de Lavié",
        "note": "marché hebdomadaire: vendredi",
        "source": "Bing;survey"
      }
    },
    {
      "type": "way",
      "id": 235049306,
      "nodes": [
        2431517872,
        2431517869,
        2431517853,
        2431517854,
        2431517872
      ],
      "tags": {
        "amenity": "marketplace",
        "name": "Maché D'alambica",
        "source": "bing;survey"
      }
    },
    {
      "type": "way",
      "id": 235835158,
      "nodes": [
        2439100035,
        2439100040,
        2439100037,
        2439100017,
        2439100012,
        2439100020,
        2439100022,
        2439100025,
        2439100031,
        2439100035
      ],
      "tags": {
        "amenity": "marketplace",
        "name": "Adidogomé Assiyeye",
        "opening_hours": "Tu,Sa",
        "source": "bing"
      }
    },
    {
      "type": "way",
      "id": 236316879,
      "nodes": [
        2443559068,
        4105409683,
        4105409682,
        3055359990,
        2443559062,
        3055359986,
        4105409672,
        2443559058,
        4105409670,
        4105409669,
        4105409665,
        2813472745,
        3055280321,
        2443559056,
        4105409659,
        4105409675,
        2443559066,
        3055359988,
        3055359989,
        2443559068
      ],
      "tags": {
        "amenity": "marketplace",
        "barrier": "wall",
        "name": "Marché de Cacaveli"
      }
    },
    {
      "type": "way",
      "id": 254856807,
      "nodes": [
        10110953266,
        2249365241,
        2249365239,
        2247271685,
        2247271690,
        2247271672,
        4646264979,
        4646264980,
        4646264981,
        4646264983,
        4646264984,
        4646264985,
        4646264987,
        4646265689,
        4646265690,
        2247271704,
        4646265693,
        2247271706,
        2247304706,
        2249365248,
        2249365252,
        2320062834,
        2249365257,
        2249365264,
        2320062884,
        2320062891,
        2249365268,
        2249365284,
        2249365290,
        2249365292,
        2247271732,
        2249365299,
        2249365294,
        2249365297,
        2249365262,
        2247271718,
        2247271715,
        2247271714,
        2247271701,
        2247271697,
        2247271695,
        10110953266
      ],
      "tags": {
        "amenity": "marketplace",
        "name": "Marche d'Atakpamé",
        "name:ar": "سوق آتكابامي",
        "organic": "no",
        "source": "survey and bing"
      }
    },
    {
      "type": "way",
      "id": 260550038,
      "nodes": [
        2660527323,
        2660527313,
        2660527311,
        2660527269,
        2660527267,
        2660527260,
        2660527259,
        2660527254,
        2660527252,
        2660527217,
        2660527203,
        2660527235,
        2660527238,
        2660527256,
        2660527258,
        2660527263,
        2660527265,
        2660527286,
        2660527295,
        2660527317,
        2660527323
      ],
      "tags": {
        "amenity": "marketplace",
        "source": "survey"
      }
    },
    {
      "type": "way",
      "id": 286990670,
      "nodes": [
        2906555825,
        2906555824,
        2906555842,
        2906555843,
        2906555825
      ],
      "tags": {
        "amenity": "marketplace",
        "note": "main product is yam",
        "source": "bing;survey"
      }
    },
    {
      "type": "way",
      "id": 293918068,
      "nodes": [
        2974963541,
        2974963396,
        2974963386,
        2974963380,
        2974963378,
        2974963379,
        2974963382,
        2974963383,
        2974963385,
        2974963390,
        2974963392,
        2974963401,
        2974963406,
        2974963413,
        2974963416,
        2974963420,
        2974963430,
        2974963541
      ],
      "tags": {
        "amenity": "marketplace",
        "name": "Marché d'Ahépé",
        "source": "Bing"
      }
    },
    {
      "type": "way",
      "id": 299683745,
      "nodes": [
        3037258271,
        3037258272,
        3037258270,
        3037258269,
        3037258271
      ],
      "tags": {
        "amenity": "marketplace",
        "name": "Marché de Kpimé Tomégbé",
        "opening_hours": "08:30-17:30"
      }
    },
    {
      "type": "way",
      "id": 311051305,
      "nodes": [
        6116631027,
        3165898251,
        3165898252,
        3165898253,
        3165898254,
        3165898255,
        3165898257,
        3165898461,
        3166168436,
        6116631024,
        6116631027
      ],
      "tags": {
        "amenity": "marketplace",
        "name": "Grand Marché de Kpalimé"
      }
    },
    {
      "type": "way",
      "id": 319953216,
      "nodes": [
        3264510382,
        3264510383,
        3264510384,
        3264510385,
        3264510388,
        3264510390,
        3264510391,
        3264510395,
        3264510398,
        3264510402,
        3264510434,
        3264510433,
        3264510432,
        3264510431,
        3264510430,
        3264510429,
        3264510428,
        3264510427,
        3264510426,
        3264510425,
        3264510424,
        3264510423,
        3264510422,
        3264510421,
        3264510420,
        3264510418,
        3264510403,
        3264510401,
        3264510399,
        3264510396,
        3264510386,
        3264510382
      ],
      "tags": {
        "amenity": "marketplace",
        "name": "Marché des Féticheurs",
        "name:en": "Akodessawa Fetish Market",
        "source": "survey",
        "tourism": "attraction",
        "wikidata": "Q27030937",
        "wikipedia": "fr:Marché des féticheurs"
      }
    },
    {
      "type": "way",
      "id": 333323432,
      "nodes": [
        6957209379,
        6957209383,
        6954898171,
        6957209380,
        6957209382,
        6954898172,
        3404443431,
        6954897986,
        2103525702,
        2103525752,
        6957209379
      ],
      "tags": {
        "amenity": "marketplace",
        "name": "Marché de Dapaong / AGETUR - TOGO",
        "operator": "Commune de Dapaong",
        "source": "AGETUR TOGO"
      }
    },
    {
      "type": "way",
      "id": 336597797,
      "nodes": [
        3436338001,
        3436338002,
        3436338003,
        3436338004,
        3436338005,
        3436338001
      ],
      "tags": {
        "amenity": "marketplace",
        "building": "yes",
        "name": "Marché Avéta"
      }
    },
    {
      "type": "way",
      "id": 351969558,
      "nodes": [
        3577695773,
        3577695777,
        3577695903,
        3577695922,
        3577695944,
        3577695959,
        3577695960,
        3577695965,
        3577695966,
        3577695981,
        3577695970,
        3577695927,
        3577695917,
        3577695916,
        3577695894,
        3577695760,
        3577695765,
        3577695773
      ],
      "tags": {
        "amenity": "marketplace",
        "note": "must be checked on ground",
        "source": "bing",
        "wheelchair": "limited"
      }
    },
    {
      "type": "way",
      "id": 366746264,
      "nodes": [
        3707297526,
        3707296823,
        3707296818,
        3707296817,
        3707296820,
        3707297526
      ],
      "tags": {
        "amenity": "marketplace",
        "name": "Place de l'ancien marché de Blitta",
        "organic": "yes"
      }
    },
    {
      "type": "way",
      "id": 368492361,
      "nodes": [
        3723462617,
        3733424998,
        3733425173,
        3723462616,
        3723462612,
        3723462608,
        3723462609,
        3723462610,
        3733425152,
        3733425153,
        3733425156,
        3733425161,
        3733425166,
        3733425164,
        3733425167,
        3723462617
      ],
      "tags": {
        "amenity": "marketplace",
        "name": "grand marché agou gadzépé",
        "note": "a lot of smaller buildings"
      }
    },
    {
      "type": "way",
      "id": 376524838,
      "nodes": [
        3799364096,
        3799364097,
        3799364098,
        3799364099,
        3799364096
      ],
      "tags": {
        "amenity": "marketplace",
        "building": "yes"
      }
    },
    {
      "type": "way",
      "id": 383634902,
      "nodes": [
        3869453617,
        3869453616,
        3869453607,
        3869453602,
        3869453606,
        3869453617
      ],
      "tags": {
        "amenity": "marketplace",
        "name": "Marche",
        "opening_hours": "16:00-20:00-sa-su",
        "operator": "Oronko"
      }
    },
    {
      "type": "way",
      "id": 383710120,
      "nodes": [
        3870129162,
        3870129251,
        3870129309,
        3870129268,
        3870129220,
        3870129162
      ],
      "tags": {
        "amenity": "marketplace",
        "name": "Marché d'Akpango"
      }
    },
    {
      "type": "way",
      "id": 404234958,
      "nodes": [
        4065062538,
        4065062539,
        4065062540,
        4065062541,
        4065062542,
        4065062543,
        4065062544,
        4065062545,
        4065062547,
        4065062549,
        4065062550,
        4065062551,
        4065062552,
        4065062553,
        4065062538
      ],
      "tags": {
        "amenity": "marketplace"
      }
    },
    {
      "type": "way",
      "id": 404234961,
      "nodes": [
        4065062554,
        4065062555,
        4065062556,
        4065062557,
        4065062558,
        4065062554
      ],
      "tags": {
        "amenity": "marketplace"
      }
    },
    {
      "type": "way",
      "id": 409074626,
      "nodes": [
        9340127873,
        9340127874,
        4109636479,
        4109635442,
        9340127873
      ],
      "tags": {
        "amenity": "marketplace",
        "name": "Marché de Bè"
      }
    },
    {
      "type": "way",
      "id": 436388866,
      "nodes": [
        4342703627,
        4352373143,
        4352373125,
        4342703622,
        4342703623,
        4342703624,
        4342703625,
        4342703626,
        4342703627
      ],
      "tags": {
        "amenity": "marketplace",
        "fixme": "confirm"
      }
    },
    {
      "type": "way",
      "id": 440099669,
      "nodes": [
        4378037660,
        4378037677,
        4378037682,
        4378037695,
        4378037702,
        4378037670,
        4378037658,
        4378037657,
        4378037660
      ],
      "tags": {
        "amenity": "marketplace",
        "source": "Bing"
      }
    },
    {
      "type": "way",
      "id": 452702083,
      "nodes": [
        4494512458,
        4494512459,
        4494512460,
        4494512461,
        4494512458
      ],
      "tags": {
        "amenity": "marketplace",
        "name": "Marche Alibi II"
      }
    },
    {
      "type": "way",
      "id": 454267389,
      "nodes": [
        4508435275,
        4508435276,
        4508435277,
        4508435278,
        4508435275
      ],
      "tags": {
        "amenity": "marketplace",
        "building": "yes",
        "name": "Food vendors"
      }
    },
    {
      "type": "way",
      "id": 545093527,
      "nodes": [
        5268638860,
        5268638861,
        5268638862,
        5268638863,
        5268638860
      ],
      "tags": {
        "amenity": "marketplace",
        "building": "yes"
      }
    },
    {
      "type": "way",
      "id": 546649784,
      "nodes": [
        5282528131,
        5282528130,
        11225440807,
        5282528129,
        5282528128,
        11181520636,
        5282528127,
        5282528126,
        11181053324,
        5282528125,
        5282528124,
        11181063790,
        11181063791,
        5282528123,
        5282528122,
        5282528131
      ],
      "tags": {
        "amenity": "marketplace",
        "name": "Marché d'Adétikopé"
      }
    },
    {
      "type": "way",
      "id": 561758480,
      "nodes": [
        5416330147,
        5416330146,
        5416330136,
        5416330135,
        5416330134,
        5416330137,
        5416330138,
        5416330145,
        5416330144,
        5416330143,
        5416330147
      ],
      "tags": {
        "amenity": "marketplace",
        "name": "Marché d'Awatamé",
        "opening_hours": "Mo-Su 08:00-18:00; Apr 10-15 off; Jun 08:00-14:00; Aug off; Dec 25 off",
        "organic": "yes",
        "wheelchair": "yes"
      }
    },
    {
      "type": "way",
      "id": 563889234,
      "nodes": [
        5433611953,
        5433611954,
        5433611955,
        5433611956,
        5433611957,
        5433611958,
        5433611953
      ],
      "tags": {
        "amenity": "marketplace",
        "description": "Market is held on Monday afternoon and evenings.",
        "name": "Kanaimboua Market"
      }
    },
    {
      "type": "way",
      "id": 754671262,
      "nodes": [
        7050163965,
        7050163966,
        7050163967,
        7050163968,
        7050163969,
        7050163970,
        7050163971,
        7050163972,
        7050163973,
        7050163974,
        7050163975,
        7050163976,
        7050163965
      ],
      "tags": {
        "amenity": "marketplace",
        "name": "Marché d'Avétonou"
      }
    },
    {
      "type": "way",
      "id": 759354181,
      "nodes": [
        7092963844,
        7092963843,
        8410021216,
        7092963842,
        7092963841,
        7092963844
      ],
      "tags": {
        "amenity": "marketplace",
        "name": "Nouvelle Place du Marché de Mango"
      }
    },
    {
      "type": "way",
      "id": 763961094,
      "nodes": [
        7137229375,
        7137229374,
        7137229373,
        4312459447,
        7366903015,
        7137229371,
        7137229372,
        7137229375
      ],
      "tags": {
        "amenity": "marketplace",
        "name": "Assigamé",
        "showcase": "Only",
        "source": "Bing;Survey"
      }
    },
    {
      "type": "way",
      "id": 805954412,
      "nodes": [
        7536840765,
        7536840764,
        7536840763,
        7536840762,
        7536840765
      ],
      "tags": {
        "amenity": "marketplace"
      }
    },
    {
      "type": "way",
      "id": 813104318,
      "nodes": [
        7594990716,
        7594990715,
        7594990714,
        7594990713,
        7594990712,
        7594990711,
        7594990710,
        7594990709,
        7594990708,
        7594990707,
        7594990706,
        7594990705,
        7594990704,
        7594990703,
        7594990702,
        7594990701,
        7594990700,
        7594990716
      ],
      "tags": {
        "amenity": "marketplace"
      }
    },
    {
      "type": "way",
      "id": 815726737,
      "nodes": [
        7618340047,
        7618340048,
        7618340049,
        7618340050,
        7618340051,
        7618340045,
        7618340052,
        7618340047
      ],
      "tags": {
        "amenity": "marketplace",
        "landuse": "commercial",
        "name": "Grand Marché Château",
        "operator": "Mairie de Kpalimé"
      }
    },
    {
      "type": "way",
      "id": 837990324,
      "nodes": [
        7821250175,
        7833085327,
        7833085326,
        7833085325,
        7833085324,
        7833085323,
        7821250172,
        7821250171,
        7833085322,
        7833085321,
        7821250170,
        7821250169,
        7821250168,
        7821250167,
        7821250166,
        7821250175
      ],
      "tags": {
        "amenity": "marketplace"
      }
    },
    {
      "type": "way",
      "id": 845205577,
      "nodes": [
        7885406558,
        7885406557,
        7885406556,
        7885406555,
        7885406554,
        7885406553,
        7885406552,
        7885406551,
        7885406550,
        7885406549,
        7885406548,
        7885406547,
        7885406546,
        7885406545,
        7885406544,
        7885406543,
        7885406542,
        7885406541,
        7885406540,
        7885406539,
        7885406538,
        7885406537,
        7885406536,
        7885406535,
        7885406534,
        7885406533,
        7885406532,
        7885406558
      ],
      "tags": {
        "amenity": "marketplace",
        "landuse": "retail",
        "source": "Maxar Standard (Beta)"
      }
    },
    {
      "type": "way",
      "id": 894934026,
      "nodes": [
        8318697650,
        8318697649,
        8318697648,
        8318697647,
        8318697646,
        8318697645,
        8318697644,
        8318697643,
        8318697650
      ],
      "tags": {
        "amenity": "marketplace",
        "name": "Marché de Tindjassi"
      }
    },
    {
      "type": "way",
      "id": 920940646,
      "nodes": [
        8550513124,
        4754651739,
        8550513125,
        8550513126,
        8550513124
      ],
      "tags": {
        "amenity": "marketplace",
        "name": "Marché d'Atchanvé"
      }
    },
    {
      "type": "way",
      "id": 928642004,
      "nodes": [
        8613263410,
        8613263409,
        8613263408,
        8613263407,
        8613263406,
        8613263405,
        8613263404,
        8613263403,
        8613263402,
        8613263401,
        8613263400,
        8613263399,
        8613263410
      ],
      "tags": {
        "amenity": "marketplace"
      }
    },
    {
      "type": "way",
      "id": 972498332,
      "nodes": [
        9000778404,
        9000778403,
        9000778402,
        9000778401,
        9000778400,
        9000778399,
        9000778398,
        9000778397,
        9000778396,
        9000778395,
        9000778394,
        9000778393,
        9000778392,
        9000778404
      ],
      "tags": {
        "amenity": "marketplace",
        "landuse": "retail",
        "name": "Marché de Kambolé"
      }
    },
    {
      "type": "way",
      "id": 972603823,
      "nodes": [
        9001698630,
        9001698629,
        9001698628,
        9001698627,
        9001698626,
        9507988930,
        9001698624,
        10632869584,
        9507988929,
        9001698622,
        9001698630
      ],
      "tags": {
        "amenity": "marketplace",
        "landuse": "retail",
        "name": "Marché de Tchamba"
      }
    },
    {
      "type": "way",
      "id": 992909296,
      "nodes": [
        9173213710,
        9173213709,
        9173213708,
        9173213707,
        9173213706,
        9173213705,
        9173213704,
        9173213703,
        9173213702,
        9173213701,
        9173213700,
        9173213710
      ],
      "tags": {
        "amenity": "marketplace"
      }
    },
    {
      "type": "way",
      "id": 1014904193,
      "nodes": [
        9362358097,
        9362358098,
        9362358099,
        9362358100,
        9362358097
      ],
      "tags": {
        "amenity": "marketplace"
      }
    },
    {
      "type": "way",
      "id": 1015060482,
      "nodes": [
        9363845768,
        9363845769,
        9363845770,
        9363845771,
        9363845772,
        9363845773,
        9363845774,
        9363845775,
        9363845768
      ],
      "tags": {
        "amenity": "marketplace"
      }
    },
    {
      "type": "way",
      "id": 1015260149,
      "nodes": [
        9365495608,
        9365495609,
        9365495610,
        9365495611,
        9365495608
      ],
      "tags": {
        "amenity": "marketplace"
      }
    },
    {
      "type": "way",
      "id": 1015343421,
      "nodes": [
        9366244378,
        9366244379,
        9366244380,
        9366244381,
        9366244382,
        9366244383,
        9366244384,
        9366244385,
        9366244386,
        9366244378
      ],
      "tags": {
        "addr:city": "Bassar",
        "amenity": "marketplace"
      }
    },
    {
      "type": "way",
      "id": 1015865144,
      "nodes": [
        9370255712,
        9370255713,
        9370255714,
        9370255715,
        9370255712
      ],
      "tags": {
        "amenity": "marketplace",
        "check_date": "2021-12-27",
        "landuse": "retail",
        "name": "Nouveau Marché de Tsévié"
      }
    },
    {
      "type": "way",
      "id": 1015947210,
      "nodes": [
        9370976508,
        9370976509,
        3728459351,
        9370976511,
        9370976512,
        10967608319,
        9370976513,
        9370976514,
        9370976515,
        9370976508
      ],
      "tags": {
        "amenity": "marketplace"
      }
    },
    {
      "type": "way",
      "id": 1023346208,
      "nodes": [
        9437288446,
        9437288447,
        9437288448,
        9437288449,
        9437288450,
        9437288451,
        9437288446
      ],
      "tags": {
        "amenity": "marketplace"
      }
    },
    {
      "type": "way",
      "id": 1031501433,
      "nodes": [
        9506626266,
        9506626267,
        9506626268,
        9506626269,
        9506626270,
        9506626271,
        9506626272,
        9506626273,
        9506626266
      ],
      "tags": {
        "amenity": "marketplace",
        "landuse": "retail"
      }
    },
    {
      "type": "way",
      "id": 1033880941,
      "nodes": [
        9524804164,
        9524804165,
        9524804166,
        9524804167,
        9524804168,
        9524804169,
        9524804170,
        9524804171,
        9524804172,
        9524804173,
        9524804174,
        9524804164
      ],
      "tags": {
        "amenity": "marketplace"
      }
    },
    {
      "type": "way",
      "id": 1055971022,
      "nodes": [
        9702928525,
        9702928526,
        9702928527,
        9702928528,
        9702928529,
        9702928525
      ],
      "tags": {
        "amenity": "marketplace"
      }
    },
    {
      "type": "way",
      "id": 1070010240,
      "nodes": [
        9820663017,
        9820663018,
        9820663019,
        9820663020,
        9820663021,
        9820663022,
        9820663023,
        9820663024,
        9820663025,
        9820663026,
        9820663027,
        9820663017
      ],
      "tags": {
        "amenity": "marketplace"
      }
    },
    {
      "type": "way",
      "id": 1217302783,
      "nodes": [
        11279221555,
        11279221556,
        11279221557,
        11279221558,
        11279221555
      ],
      "tags": {
        "amenity": "marketplace",
        "name": "Marche de Balanka (immeuble principale)",
        "opening_hours": "Fr 13:00-18:00"
      }
    },
    {
      "type": "way",
      "id": 1338285351,
      "nodes": [
        12378783430,
        12378783429,
        12378783428,
        12378783427,
        12378783426,
        12378783425,
        12378783424,
        12378783423,
        12378783422,
        12378783421,
        12378783420,
        12378783419,
        12378783418,
        12378783430
      ],
      "tags": {
        "amenity": "marketplace",
        "name": "Marché de Pont-Noir"
      }
    },
    {
      "type": "way",
      "id": 1470223010,
      "nodes": [
        13483575808,
        13483575807,
        13483575806,
        13483575805,
        13483575804,
        13483575803,
        13483575802,
        13483575801,
        13483575800,
        13483575799,
        13483575798,
        13483575797,
        13483575796,
        13483575795,
        13483575794,
        13483575793,
        13483575792,
        13483575808
      ],
      "tags": {
        "amenity": "marketplace"
      }
    },
    {
      "type": "way",
      "id": 1470223020,
      "nodes": [
        13483575864,
        13483575863,
        13483575862,
        13483575861,
        13483575860,
        13483575859,
        13483575858,
        13483575857,
        13483575856,
        13483575855,
        13483575854,
        13483575853,
        13483575852,
        13483575851,
        13483575850,
        13483575849,
        13483575848,
        13483575847,
        13483575846,
        13483575845,
        13483575844,
        13483575843,
        13483575842,
        13483575841,
        13483575840,
        13483575839,
        13483575838,
        13483575837,
        13483575836,
        13483575835,
        13483575834,
        13483575833,
        13483575864
      ],
      "tags": {
        "amenity": "marketplace",
        "name": "Petit Marché"
      }
    },
    {
      "type": "way",
      "id": 1475157028,
      "nodes": [
        13533245148,
        13533245149,
        13533245150,
        13533245151,
        13533245152,
        13533245148
      ],
      "tags": {
        "amenity": "marketplace"
      }
    },
    {
      "type": "node",
      "id": 2439100025,
      "lat": 6.1974836,
      "lon": 1.1463385
    },
    {
      "type": "node",
      "id": 2439100031,
      "lat": 6.1983643,
      "lon": 1.1464861
    },
    {
      "type": "node",
      "id": 2439100035,
      "lat": 6.1987253,
      "lon": 1.1463073
    },
    {
      "type": "node",
      "id": 2439100040,
      "lat": 6.1990012,
      "lon": 1.1465493
    },
    {
      "type": "node",
      "id": 2439100012,
      "lat": 6.1965093,
      "lon": 1.147429
    },
    {
      "type": "node",
      "id": 2439100017,
      "lat": 6.1965367,
      "lon": 1.1478745
    },
    {
      "type": "node",
      "id": 2439100020,
      "lat": 6.1968139,
      "lon": 1.147126
    },
    {
      "type": "node",
      "id": 2439100022,
      "lat": 6.1968765,
      "lon": 1.1471163
    },
    {
      "type": "node",
      "id": 2439100037,
      "lat": 6.1988921,
      "lon": 1.1477399
    },
    {
      "type": "node",
      "id": 4312459447,
      "lat": 6.1266291,
      "lon": 1.2206981
    },
    {
      "type": "node",
      "id": 7137229371,
      "lat": 6.1262147,
      "lon": 1.2221048
    },
    {
      "type": "node",
      "id": 7137229372,
      "lat": 6.1258795,
      "lon": 1.2221784
    },
    {
      "type": "node",
      "id": 7137229373,
      "lat": 6.1244349,
      "lon": 1.2214632
    },
    {
      "type": "node",
      "id": 7137229374,
      "lat": 6.1244043,
      "lon": 1.2215692
    },
    {
      "type": "node",
      "id": 7137229375,
      "lat": 6.124663,
      "lon": 1.2223792
    },
    {
      "type": "node",
      "id": 7366903015,
      "lat": 6.1269932,
      "lon": 1.221887
    },
    {
      "type": "node",
      "id": 2387531827,
      "lat": 6.1281271,
      "lon": 1.2306541
    },
    {
      "type": "node",
      "id": 2387531828,
      "lat": 6.1288447,
      "lon": 1.2304265
    },
    {
      "type": "node",
      "id": 2387531829,
      "lat": 6.1289006,
      "lon": 1.2315695
    },
    {
      "type": "node",
      "id": 2387531830,
      "lat": 6.129471,
      "lon": 1.231476
    },
    {
      "type": "node",
      "id": 2387531831,
      "lat": 6.1297504,
      "lon": 1.2311419
    },
    {
      "type": "node",
      "id": 2387686219,
      "lat": 6.1285076,
      "lon": 1.2305334
    },
    {
      "type": "node",
      "id": 2387686235,
      "lat": 6.1285678,
      "lon": 1.2311602
    },
    {
      "type": "node",
      "id": 2387686351,
      "lat": 6.129335,
      "lon": 1.2308451
    },
    {
      "type": "node",
      "id": 2387697832,
      "lat": 6.128305,
      "lon": 1.2305976
    },
    {
      "type": "node",
      "id": 2387697868,
      "lat": 6.1293397,
      "lon": 1.2314977
    },
    {
      "type": "node",
      "id": 4109635442,
      "lat": 6.1421985,
      "lon": 1.2440063
    },
    {
      "type": "node",
      "id": 4109636479,
      "lat": 6.1425876,
      "lon": 1.2445646
    },
    {
      "type": "node",
      "id": 9340127873,
      "lat": 6.1429928,
      "lon": 1.2434014
    },
    {
      "type": "node",
      "id": 9340127874,
      "lat": 6.14338,
      "lon": 1.2439315
    },
    {
      "type": "node",
      "id": 2366184881,
      "lat": 6.1760563,
      "lon": 1.2011376
    },
    {
      "type": "node",
      "id": 2366184885,
      "lat": 6.1761298,
      "lon": 1.2006145
    },
    {
      "type": "node",
      "id": 2366184887,
      "lat": 6.176186,
      "lon": 1.200544
    },
    {
      "type": "node",
      "id": 2366184905,
      "lat": 6.1767773,
      "lon": 1.2006849
    },
    {
      "type": "node",
      "id": 5416330134,
      "lat": 6.1782516,
      "lon": 1.1688437
    },
    {
      "type": "node",
      "id": 5416330135,
      "lat": 6.1779916,
      "lon": 1.1688785
    },
    {
      "type": "node",
      "id": 5416330136,
      "lat": 6.1779916,
      "lon": 1.1690623
    },
    {
      "type": "node",
      "id": 5416330137,
      "lat": 6.1785076,
      "lon": 1.1688128
    },
    {
      "type": "node",
      "id": 5416330138,
      "lat": 6.1786383,
      "lon": 1.1688074
    },
    {
      "type": "node",
      "id": 5416330143,
      "lat": 6.1786489,
      "lon": 1.1695008
    },
    {
      "type": "node",
      "id": 5416330144,
      "lat": 6.1786676,
      "lon": 1.1692205
    },
    {
      "type": "node",
      "id": 5416330145,
      "lat": 6.1786463,
      "lon": 1.1689898
    },
    {
      "type": "node",
      "id": 5416330146,
      "lat": 6.1783636,
      "lon": 1.1690716
    },
    {
      "type": "node",
      "id": 5416330147,
      "lat": 6.1783436,
      "lon": 1.1694995
    },
    {
      "type": "node",
      "id": 2366184912,
      "lat": 6.1769188,
      "lon": 1.2012801
    },
    {
      "type": "node",
      "id": 2366184913,
      "lat": 6.1769863,
      "lon": 1.2012
    },
    {
      "type": "node",
      "id": 2387283135,
      "lat": 6.1938784,
      "lon": 1.1884291
    },
    {
      "type": "node",
      "id": 2387283137,
      "lat": 6.1940218,
      "lon": 1.1873881
    },
    {
      "type": "node",
      "id": 2387283141,
      "lat": 6.1945124,
      "lon": 1.1872998
    },
    {
      "type": "node",
      "id": 2387283143,
      "lat": 6.1948543,
      "lon": 1.1882917
    },
    {
      "type": "node",
      "id": 2387283145,
      "lat": 6.1951502,
      "lon": 1.1877848
    },
    {
      "type": "node",
      "id": 2443559056,
      "lat": 6.2037131,
      "lon": 1.1964074
    },
    {
      "type": "node",
      "id": 2443559058,
      "lat": 6.2042046,
      "lon": 1.1957203
    },
    {
      "type": "node",
      "id": 2443559062,
      "lat": 6.2054107,
      "lon": 1.1950896
    },
    {
      "type": "node",
      "id": 2443559066,
      "lat": 6.2052425,
      "lon": 1.1970523
    },
    {
      "type": "node",
      "id": 2443559068,
      "lat": 6.2059669,
      "lon": 1.1967446
    },
    {
      "type": "node",
      "id": 2813472745,
      "lat": 6.203905,
      "lon": 1.1959341
    },
    {
      "type": "node",
      "id": 3055280321,
      "lat": 6.2036982,
      "lon": 1.1963853
    },
    {
      "type": "node",
      "id": 3055359986,
      "lat": 6.204519,
      "lon": 1.1954979
    },
    {
      "type": "node",
      "id": 3055359988,
      "lat": 6.2057924,
      "lon": 1.1968345
    },
    {
      "type": "node",
      "id": 3055359989,
      "lat": 6.2058022,
      "lon": 1.1968169
    },
    {
      "type": "node",
      "id": 3055359990,
      "lat": 6.2061517,
      "lon": 1.1950478
    },
    {
      "type": "node",
      "id": 4105409659,
      "lat": 6.2039116,
      "lon": 1.1964808
    },
    {
      "type": "node",
      "id": 4105409665,
      "lat": 6.2039637,
      "lon": 1.1958935
    },
    {
      "type": "node",
      "id": 4105409669,
      "lat": 6.2039962,
      "lon": 1.1958706
    },
    {
      "type": "node",
      "id": 4105409670,
      "lat": 6.2040469,
      "lon": 1.1958239
    },
    {
      "type": "node",
      "id": 4105409672,
      "lat": 6.2042649,
      "lon": 1.1956784
    },
    {
      "type": "node",
      "id": 4105409675,
      "lat": 6.2044991,
      "lon": 1.1967174
    },
    {
      "type": "node",
      "id": 4105409682,
      "lat": 6.205969,
      "lon": 1.1963102
    },
    {
      "type": "node",
      "id": 4105409683,
      "lat": 6.205965,
      "lon": 1.1963332
    },
    {
      "type": "node",
      "id": 2100609956,
      "lat": 6.2300155,
      "lon": 1.1972209
    },